Id,AthleteId,RecruitType,Year,Ranking,Name,School,CommittedTo,Position,Height,Weight,Stars,Rating,City,StateProvince,Country,HometownInfo Latitude,HometownInfo Longitude,HometownInfo FipsCode
71458,4431274.0,HighSchool,2021,1,Korey Foreman,Centennial,USC,SDE,76.0,265.0,5,0.9994,Corona,CA,USA,33.8752945,-117.5664449,6065.0
71459,4431437.0,HighSchool,2021,2,JC Latham,IMG Academy,Alabama,OT,78.0,305.0,5,0.999,Bradenton,FL,USA,27.4989278,-82.5748194,12081.0
71460,unknown,HighSchool,2021,3,J.T. Tuimoloau,Eastside Catholic,unknown,SDE,76.0,277.0,5,0.999,Sammamish,WA,USA,47.6088445,-122.0423067,53033.0
71461,4431590.0,HighSchool,2021,4,Jack Sawyer,Pickerington North,Ohio State,SDE,77.0,248.0,5,0.998,Pickerington,OH,USA,39.8962773,-82.77319049748806,39045.0
71462,4432667.0,HighSchool,2021,5,Tommy Brockermeyer,All Saints Episcopal,Alabama,OT,78.0,283.0,5,0.9978,Fort Worth,TX,USA,32.753177,-97.3327459,48439.0
71463,4431611.0,HighSchool,2021,6,Caleb Williams,Gonzaga,Oklahoma,DUAL,73.0,210.0,5,0.9971,Washington,DC,USA,38.8949855,-77.0365708,11001.0
71464,4431571.0,HighSchool,2021,7,Amarius Mims,Bleckley County,Georgia,OT,79.0,315.0,5,0.996,Cochran,GA,USA,32.3868278,-83.3546098,13023.0
71465,4565190.0,HighSchool,2021,8,Dallas Turner,St. Thomas Aquinas,Alabama,WDE,76.0,245.0,5,0.9948,Fort Lauderdale,FL,USA,26.1223084,-80.1433786,12011.0
71466,4567750.0,HighSchool,2021,9,Emeka Egbuka,Steilacoom,Ohio State,WR,73.0,190.0,5,0.9947,Steilacoom,WA,USA,47.1703692,-122.5962874,53053.0
71467,4431598.0,HighSchool,2021,10,Leonard Taylor,Miami Palmetto,Miami,DT,76.0,265.0,5,0.9941,Miami,FL,USA,25.7742658,-80.1936589,12086.0
71469,4567748.0,HighSchool,2021,11,Sam Huard,Kennedy Catholic,Washington,PRO,74.0,190.0,5,0.9936,Bellevue,WA,USA,47.6144219,-122.1923372,53033.0
71478,4431588.0,HighSchool,2021,12,Ja'Tavion Sanders,Ryan,Texas,ATH,75.0,235.0,5,0.9933,Denton,TX,USA,33.2150386,-97.1330516,48121.0
71468,4431443.0,HighSchool,2021,13,Tristan Leigh,Robinson Secondary,Clemson,OT,77.0,270.0,5,0.9922,Fairfax,VA,USA,38.8462236,-77.3063733,51600.0
71470,4431613.0,HighSchool,2021,14,James Williams,American Heritage,Miami,S,77.0,218.0,5,0.9922,Opa Locka,FL,USA,25.89673385,-80.25949640850294,12086.0
71472,4431587.0,HighSchool,2021,15,Nolan Rucci,Warwick,Wisconsin,OT,80.0,295.0,5,0.9911,Lititz,PA,USA,40.1571252,-76.3072103,42071.0
71471,4432782.0,HighSchool,2021,16,Brock Vandagriff,Prince Avenue Christian School,Georgia,DUAL,75.0,205.0,5,0.9909,Bogart,GA,USA,33.949281,-83.534608,13219.0
71480,unknown,HighSchool,2021,17,Ga'Quincy McKinstry,Pinson Valley,Alabama,CB,72.0,180.0,5,0.9907,Pinson,AL,USA,33.706205,-86.67007895992774,1073.0
71474,4431553.0,HighSchool,2021,18,Donovan Jackson,Episcopal,Ohio State,OG,76.0,308.0,5,0.9902,Bellaire,TX,USA,29.7057858,-95.4588299,48201.0
71475,4431567.0,HighSchool,2021,19,Maason Smith,Terrebonne,LSU,DT,77.0,316.0,5,0.9899,Houma,LA,USA,29.5957696,-90.7195348,22109.0
71473,4431558.0,HighSchool,2021,20,Terrence Lewis,Miami Central,Maryland,ILB,73.0,200.0,5,0.9895,Opa Locka,FL,USA,25.89673385,-80.25949640850294,12086.0
75276,4432804.0,HighSchool,2021,21,Shemar Turner,DeSoto,Texas A&M,DT,75.0,282.0,5,0.9879,DeSoto,TX,USA,32.6061241,-96.865612653687,48113.0
71481,4432710.0,HighSchool,2021,22,TreVeyon Henderson,Hopewell,Ohio State,RB,71.0,195.0,5,0.9874,Hopewell,VA,USA,36.7468036,-79.4639158,51143.0
71476,4431503.0,HighSchool,2021,23,Damon Payne,Belleville,Alabama,DT,75.0,297.0,5,0.9873,Belleville,MI,USA,42.2048414,-83.4852106,17163.0
71479,4433970.0,HighSchool,2021,24,J.J. McCarthy,IMG Academy,Michigan,PRO,75.0,190.0,5,0.9868,La Grange Park,IL,USA,41.8333646,-87.8677324,17031.0
71477,4431570.0,HighSchool,2021,25,Xavian Sorey,IMG Academy,Georgia,OLB,75.0,214.0,5,0.9865,Bradenton,FL,USA,27.4989278,-82.5748194,12081.0
71491,unknown,HighSchool,2021,26,Jacorey Brooks,IMG Academy,Alabama,WR,75.0,185.0,5,0.9863,Bradenton,FL,USA,27.4989278,-82.5748194,12081.0
71482,4433971.0,HighSchool,2021,27,Kyle McCord,St. Joseph's,Ohio State,PRO,75.0,215.0,5,0.986,Philadelphia,PA,USA,39.9527237,-75.1635262,42101.0
71484,4875178.0,HighSchool,2021,28,Jason Marshall,Miami Palmetto,Florida,CB,74.0,180.0,5,0.9856,Miami,FL,USA,25.7742658,-80.1936589,12086.0
71485,4431539.0,HighSchool,2021,29,Sage Ryan,Lafayette Christian Academy,LSU,S,71.0,193.0,5,0.9852,Lafayette,LA,USA,30.2240897,-92.0198427,22055.0
71489,4432764.0,HighSchool,2021,30,Keeshawn Silver,Rocky Mount,North Carolina,SDE,78.0,275.0,5,0.9842,Rocky Mount,NC,USA,35.9423833,-77.7956949,37127.0
71488,4432804.0,HighSchool,2021,31,Shemar Turner,DeSoto,Texas A&M,SDE,75.0,282.0,5,0.985,DeSoto,TX,USA,32.6061241,-96.865612653687,48113.0
71487,4431545.0,HighSchool,2021,31,Will Shipley,Weddington,Clemson,APB,71.0,198.0,5,0.984,Matthews,NC,USA,35.1170873,-80.723718,37119.0
71490,4431519.0,HighSchool,2021,32,Barrett Carter,North Gwinnett,Clemson,OLB,73.0,220.0,5,0.9836,Suwanee,GA,USA,34.0514898,-84.0712997,13135.0
71483,unknown,HighSchool,2021,33,Camar Wheaton,Lakeview Centennial,Alabama,RB,71.0,190.0,5,0.9836,Garland,TX,USA,32.912624,-96.6388833,48113.0
71486,4431573.0,HighSchool,2021,34,Smael Mondon,Paulding County,Georgia,OLB,75.0,220.0,5,0.9835,Dallas,GA,USA,33.9237141,-84.8407732,13223.0
71492,4431595.0,HighSchool,2021,35,Kingsley Suamataia,Orem,Oregon,OT,77.0,280.0,4,0.9831,Orem,UT,USA,40.2971825,-111.694943,49049.0
71498,4432777.0,HighSchool,2021,36,Jeremiah Trotter Jr.,St. Joseph's,Clemson,ILB,72.0,210.0,4,0.9819,Philadelphia,PA,USA,39.9527237,-75.1635262,42101.0
71500,4432765.0,HighSchool,2021,37,Clayton Smith,Texas High,Oklahoma,WDE,76.0,220.0,4,0.9814,Texarkana,TX,USA,33.44628645,-94.07638067493534,48037.0
71494,4432655.0,HighSchool,2021,38,Tunmise Adeleye,Tompkins,Texas A&M,SDE,75.0,245.0,4,0.9813,Katy,TX,USA,29.7857853,-95.8243956,48157.0
71496,4432774.0,HighSchool,2021,39,Ty Thompson,Mesquite,Oregon,PRO,76.0,215.0,4,0.9808,Gilbert,AZ,USA,33.3527632,-111.7890373,4013.0
71493,4431280.0,HighSchool,2021,40,Troy Franklin,Menlo-Atherton,Oregon,WR,74.0,170.0,4,0.981,Menlo Park,CA,USA,37.4519671,-122.1779927,6081.0
71501,4431536.0,HighSchool,2021,41,Donovan Edwards,West Bloomfield,Michigan,RB,71.0,190.0,4,0.9808,West Bloomfield,MI,USA,42.5679,-83.3733,36069.0
71499,4875852.0,HighSchool,2021,42,Mario Williams,Plant City,Oklahoma,WR,71.0,178.0,4,0.9799,Plant City,FL,USA,28.01806015,-82.11848198507127,12057.0
71495,4431194.0,HighSchool,2021,43,Billy Bowman,Ryan,Oklahoma,ATH,70.0,175.0,4,0.9801,Denton,TX,USA,33.2150386,-97.1330516,48121.0
71513,4567774.0,HighSchool,2021,44,Agiye Hall,Bloomingdale,Alabama,WR,75.0,190.0,4,0.9789,Valrico,FL,USA,27.9484265,-82.23621545220522,12057.0
71497,4432718.0,HighSchool,2021,45,LJ Johnson,Cy-Fair,Texas A&M,RB,70.0,204.0,4,0.9781,Cypress,TX,USA,29.9691116,-95.6971686,48201.0
71505,4432694.0,HighSchool,2021,46,JoJo Earle,Aledo,Alabama,WR,69.0,170.0,4,0.9763,Aledo,TX,USA,32.69900905,-97.60396629774492,48367.0
71503,4432703.0,HighSchool,2021,47,Jake Garcia,Grayson,Miami,PRO,74.0,195.0,4,0.9763,Loganville,GA,USA,33.8389977,-83.9007382,13297.0
71502,4431247.0,HighSchool,2021,48,Raesjon Davis,Mater Dei,USC,OLB,73.0,215.0,4,0.9748,Santa Ana,CA,USA,33.7494951,-117.8732213,6059.0
71504,4431403.0,HighSchool,2021,49,Jakailin Johnson,DeSmet,Ohio State,CB,73.0,175.0,4,0.9747,Saint Louis,MO,USA,38.6264178,-90.1998378,29510.0
71563,4592837.0,HighSchool,2021,50,Terrion Arnold,John Paul II Catholic,Alabama,S,72.0,180.0,4,0.9746,Tallahassee,FL,USA,30.4380832,-84.2809332,12073.0
71512,4432725.0,HighSchool,2021,51,Deontae Lawson,Mobile Christian School,Alabama,ILB,75.0,225.0,4,0.9746,Mobile,AL,USA,30.6943566,-88.0430541,1097.0
71506,4600415.0,HighSchool,2021,52,Mike Hall,Streetsboro,Ohio State,DT,75.0,290.0,4,0.9744,Streetsboro,OH,USA,41.239223,-81.345941,39133.0
71507,4431578.0,HighSchool,2021,53,Landon Tengwall,Good Counsel,Penn State,OT,78.0,300.0,4,0.974,Olney,MD,USA,39.1532123,-77.0668408,24031.0
71509,4432699.0,HighSchool,2021,54,Blake Fisher,Avon,Notre Dame,OT,77.0,336.0,4,0.9739,Avon,IN,USA,39.7628227,-86.3997168,18063.0
71514,4431452.0,HighSchool,2021,55,Drake Maye,Myers Park,North Carolina,PRO,77.0,210.0,4,0.9725,Charlotte,NC,USA,35.2272,-80.843083,37119.0
71510,4432775.0,HighSchool,2021,56,Dont'e Thornton,Mount Saint Joseph,Oregon,WR,76.0,185.0,4,0.9721,Baltimore,MD,USA,39.2908816,-76.610759,24510.0
71511,4431542.0,HighSchool,2021,57,Terrence Ferguson,Peach County,Alabama,OG,76.0,300.0,4,0.9721,Fort Valley,GA,USA,32.5537585,-83.8874084,13225.0
71655,4570039.0,HighSchool,2021,58,Keanu Koht,Vero Beach,Alabama,WDE,76.0,215.0,4,0.9717,Vero Beach,FL,USA,27.6387163,-80.3975399,12061.0
71517,4431593.0,HighSchool,2021,59,Rocco Spindler,Clarkston,Notre Dame,OG,76.0,315.0,4,0.9715,Clarkston,MI,USA,42.735863,-83.4188304,26125.0
71516,4431196.0,HighSchool,2021,60,Jake Briningstool,Ravenwood,Clemson,TE,77.0,215.0,4,0.9715,Brentwood,TN,USA,36.0325687,-86.7825235,47187.0
71533,unknown,HighSchool,2021,61,Xavier Worthy,Central East,Michigan,WR,73.0,160.0,4,0.9714,Fresno,CA,USA,36.7295295,-119.70886126075588,6019.0
71519,4432671.0,HighSchool,2021,62,Savion Byrd,Duncanville,Oklahoma,OT,77.0,295.0,4,0.9716,Duncanville,TX,USA,32.6518004,-96.9083366,48113.0
71518,4432729.0,HighSchool,2021,62,Tywone Malone,Bergen Catholic,Ole Miss,DT,75.0,300.0,4,0.9709,Oradell,NJ,USA,40.9543943,-74.0308504,34003.0
75277,4432671.0,HighSchool,2021,63,Savion Byrd,Duncanville,Oklahoma,OG,77.0,295.0,4,0.9708,Duncanville,TX,USA,32.6518004,-96.9083366,48113.0
71515,4873169.0,HighSchool,2021,64,Derrick Davis Jr.,Gateway,LSU,S,73.0,194.0,4,0.9708,Monroeville,PA,USA,40.4211798,-79.7881025,42003.0
71529,4431276.0,HighSchool,2021,65,Bryce Foster,Taylor,Texas A&M,OG,76.0,330.0,4,0.9705,Katy,TX,USA,29.7857853,-95.8243956,48157.0
71520,4432738.0,HighSchool,2021,66,Micah Morris,Camden County,Georgia,OT,76.0,316.0,4,0.97,Kingsland,GA,USA,30.7999563,-81.6898261,13039.0
71521,4431586.0,HighSchool,2021,67,Demeioun Robinson,Quince Orchard,Maryland,WDE,75.0,220.0,4,0.9699,Gaithersburg,MD,USA,39.1434406,-77.2013705,24031.0
71560,4689114.0,HighSchool,2021,68,Jaxson Dart,Corner Canyon,USC,PRO,75.0,210.0,4,0.9695,Draper,UT,USA,40.5246711,-111.8638226,49035.0
71527,4873170.0,HighSchool,2021,69,Deion Smith,Jackson Academy,LSU,WR,73.0,172.0,4,0.9692,Jackson,MS,USA,32.2990384,-90.1847691,28049.0
71522,4431513.0,HighSchool,2021,70,Tyler Buchner,Helix,Notre Dame,DUAL,74.0,205.0,4,0.9685,La Jolla,CA,USA,32.83259,-117.2716839,6073.0
71526,4431549.0,HighSchool,2021,71,Nyland Green,Newton,Georgia,CB,74.0,183.0,4,0.9684,Covington,GA,USA,33.5967815,-83.8601827,13217.0
71524,4596480.0,HighSchool,2021,72,Jordan Hancock,North Gwinnett,Ohio State,CB,73.0,170.0,4,0.9681,Suwanee,GA,USA,34.0514898,-84.0712997,13135.0
71530,unknown,HighSchool,2021,73,Jeremiah Williams,Ramsay,Florida,WDE,75.0,224.0,4,0.967,Birmingham,AL,USA,33.5206824,-86.8024326,1073.0
71525,4587702.0,HighSchool,2021,74,Christian Leary,Edgewater,Alabama,WR,69.0,190.0,4,0.9673,Orlando,FL,USA,28.5421109,-81.3790304,12095.0
71528,4431580.0,HighSchool,2021,75,Miller Moss,Bishop Alemany,USC,PRO,74.0,197.0,4,0.9665,Mission Hills,CA,USA,34.687584,-120.43901754304564,6083.0
71508,4431508.0,HighSchool,2021,76,Dylan Brooks,Handley,Auburn,WDE,77.0,250.0,4,0.966,Roanoke,AL,USA,33.1512313,-85.3721709,1111.0
71531,4433964.0,HighSchool,2021,77,Ethan Calvert,Oaks Christian,Utah,ILB,75.0,230.0,4,0.9653,Westlake Village,CA,USA,34.1460234,-118.8061794,6037.0
71532,4431334.0,HighSchool,2021,78,Chris Hilton,Zachary,LSU,WR,71.0,169.0,4,0.9648,Zachary,LA,USA,30.6485191,-91.1564961,22033.0
71534,4431619.0,HighSchool,2021,79,Ceyair Wright,Loyola,USC,CB,73.0,175.0,4,0.9638,Los Angeles,CA,USA,34.0536909,-118.2427666,6037.0
71537,4431551.0,HighSchool,2021,80,Lee Hunter,Blount,Auburn,DT,77.0,292.0,4,0.9638,Eight Mile,AL,USA,30.7635213,-88.126946,1097.0
71535,4432734.0,HighSchool,2021,81,Jalen Milroe,Tompkins,Alabama,DUAL,75.0,206.0,4,0.9633,Katy,TX,USA,29.7857853,-95.8243956,48157.0
71538,4432757.0,HighSchool,2021,82,Evan Pryor,William Amos Hough,Ohio State,APB,70.0,190.0,4,0.963,Cornelius,NC,USA,35.4817982,-80.8589501,37119.0
71543,4567747.0,HighSchool,2021,83,Garrett Nussmeier,Marcus,LSU,PRO,73.0,182.0,4,0.9626,Flower Mound,TX,USA,33.0283854,-97.0867203,48121.0
71539,4432783.0,HighSchool,2021,84,Bram Walden,Saguaro,Oregon,OT,76.0,270.0,4,0.9625,Scottsdale,AZ,USA,33.4942189,-111.9260184,4013.0
71540,4431210.0,HighSchool,2021,85,Beaux Collins,St. John Bosco,Clemson,WR,74.0,195.0,4,0.9625,Bellflower,CA,USA,33.8825705,-118.1167679,6037.0
71541,4432673.0,HighSchool,2021,86,Reid Carrico,Ironton,Ohio State,ILB,75.0,225.0,4,0.9617,Ironton,OH,USA,38.5367471,-82.6829406,39087.0
71542,4431538.0,HighSchool,2021,87,Giovanni El-Hadi,Adlai Stevenson,Michigan,OT,77.0,285.0,4,0.9614,Sterling Heights,MI,USA,42.5803122,-83.0302033,26099.0
71536,4873176.0,HighSchool,2021,88,Brian Thomas Jr.,Walker,LSU,WR,76.0,185.0,4,0.9602,Walker,LA,USA,30.4879678,-90.8614878,27021.0
71552,4431212.0,HighSchool,2021,89,Junior Colson,Ravenwood,Michigan,OLB,74.0,228.0,4,0.9598,Brentwood,TN,USA,36.0325687,-86.7825235,47187.0
71547,4431252.0,HighSchool,2021,90,Garrett Dellinger,Clarkston,LSU,OT,77.0,280.0,4,0.9599,Clarkston,MI,USA,42.735863,-83.4188304,26125.0
71546,4431288.0,HighSchool,2021,91,Monkell Goodwine,Rock Creek Christian Academy,Alabama,SDE,76.0,260.0,4,0.9596,Upper Marlboro,MD,USA,38.8165274,-76.7519753,24033.0
71544,4432698.0,HighSchool,2021,92,Reuben Fatheree,Foster,Texas A&M,OT,80.0,305.0,4,0.9596,Richmond,TX,USA,29.5821811,-95.7607832,48157.0
71545,4590292.0,HighSchool,2021,93,Thomas Fidone,Lewis Central,Nebraska,TE,77.0,225.0,4,0.9595,Council Bluffs,IA,USA,41.2621283,-95.8613912,19155.0
71550,4431582.0,HighSchool,2021,94,Payton Page,Dudley,Clemson,DT,76.0,360.0,4,0.9587,Greensboro,NC,USA,36.0726355,-79.7919754,37081.0
71551,4431286.0,HighSchool,2021,95,Armoni Goodwin,Hewitt-Trussville,LSU,RB,68.0,190.0,4,0.9585,Trussville,AL,USA,33.626629,-86.5549335251678,1073.0
71549,4873113.0,HighSchool,2021,96,David Daniel,Woodstock,Georgia,ATH,73.0,180.0,4,0.9585,Woodstock,GA,USA,34.1014112,-84.5192192,13057.0
71548,4875595.0,HighSchool,2021,97,Marvin Harrison Jr.,St. Joseph's Prep School,Ohio State,WR,75.0,190.0,4,0.9584,Philadelphia,PA,USA,39.9527237,-75.1635262,42101.0
71554,4646773.0,HighSchool,2021,98,Dylan Fairchild,West Forsyth,Georgia,OG,77.0,298.0,4,0.9584,Cumming,GA,USA,34.2073196,-84.1401926,13117.0
71523,4431498.0,HighSchool,2021,99,Jayden Ballard,Washington,Ohio State,WR,74.0,175.0,4,0.9581,Massillon,OH,USA,40.7967244,-81.5215093,39151.0
71553,4889957.0,HighSchool,2021,100,Tyreak Sapp,St. Thomas Aquinas,Florida,SDE,74.0,255.0,4,0.958,Fort Lauderdale,FL,USA,26.1223084,-80.1433786,12011.0
71557,4595343.0,HighSchool,2021,101,Kendal Daniels,Beggs,Oklahoma State,S,76.0,190.0,4,0.9579,Beggs,OK,USA,35.7425976,-96.0702731,40111.0
71555,4431213.0,HighSchool,2021,102,Deion Colzie,Athens Academy,Notre Dame,WR,76.0,193.0,4,0.9571,Athens,GA,USA,33.9597677,-83.376398,13059.0
71556,4612847.0,HighSchool,2021,103,Raneiria Dillworth,Glenn,North Carolina,OLB,74.0,193.0,4,0.9563,Kernersville,NC,USA,36.1198589,-80.0736533,37067.0
71558,4567943.0,HighSchool,2021,104,Cade Denhoff,Lakeland Christian School,Clemson,SDE,76.0,235.0,4,0.9537,Lakeland,FL,USA,28.0394654,-81.9498042,12105.0
71559,4432665.0,HighSchool,2021,105,Brock Bowers,Napa,Georgia,TE,75.0,225.0,4,0.9533,Napa,CA,USA,38.2971367,-122.2855293,6055.0
71567,4875182.0,HighSchool,2021,106,Corey Collier,Miami Palmetto,Florida,S,74.0,170.0,4,0.9525,Miami,FL,USA,25.7742658,-80.1936589,12086.0
71561,4431547.0,HighSchool,2021,107,Kelvin Gilliam,Highland Springs,Oklahoma,WDE,75.0,250.0,4,0.9522,Highland Springs,VA,USA,37.5460121,-77.3278441,51087.0
71566,4432716.0,HighSchool,2021,108,Branden Jennings,Sandalwood,Maryland,OLB,75.0,225.0,4,0.9511,Jacksonville,FL,USA,30.3321838,-81.655651,12031.0
71565,4431463.0,HighSchool,2021,109,Wyatt Milum,Spring Valley,West Virginia,OT,78.0,273.0,4,0.9508,Huntington,WV,USA,38.4192496,-82.445154,54011.0
71564,4875853.0,HighSchool,2021,110,Cody Jackson,Foster,Oklahoma,WR,72.0,175.0,4,0.9507,Richmond,TX,USA,29.5821811,-95.7607832,48157.0
71568,4432767.0,HighSchool,2021,111,Preston Stone,Parish Episcopal School,SMU,DUAL,74.0,205.0,4,0.9503,Dallas,TX,USA,32.7762719,-96.7968559,48113.0
71590,unknown,HighSchool,2021,112,Shadrach Banks,North Shore,Texas A&M,WR,72.0,220.0,4,0.9494,Houston,TX,USA,29.7589382,-95.3676974,48201.0
71570,unknown,HighSchool,2021,113,Destyn Hill,Edna Karr,Florida State,WR,72.0,200.0,4,0.9483,New Orleans,LA,USA,29.9499323,-90.0701156,22071.0
71571,4431200.0,HighSchool,2021,114,Keith Brown,Lebanon,Oregon,ILB,73.0,220.0,4,0.9488,Lebanon,OR,USA,44.5365467,-122.9068762,41043.0
71572,4432768.0,HighSchool,2021,115,Lorenzo Styles Jr.,Pickerington Central,Notre Dame,WR,73.0,185.0,4,0.9485,Pickerington,OH,USA,39.8962773,-82.77319049748806,39045.0
71569,4432674.0,HighSchool,2021,116,Lovasea Carroll,IMG Academy,Georgia,RB,72.0,189.0,4,0.9476,Bradenton,FL,USA,27.4989278,-82.5748194,12081.0
71573,4431533.0,HighSchool,2021,117,Gabriel Rubio,Lutheran Of St Charles County,Notre Dame,DT,77.0,305.0,4,0.9474,Saint Peters,MO,USA,38.791612,-90.5958468,29183.0
75802,4601278.0,HighSchool,2021,118,Nate Wiggins,Westlake,Clemson,CB,74.0,170.0,4,0.9453,Atlanta,GA,USA,33.7490987,-84.3901849,13121.0
71577,4601278.0,HighSchool,2021,118,Nathaniel Wiggins,Westlake,Clemson,CB,74.0,170.0,4,0.9453,Atlanta,GA,USA,33.7490987,-84.3901849,13121.0
71575,4431528.0,HighSchool,2021,119,Elliot Donald,Central Catholic,Pittsburgh,DT,74.0,250.0,4,0.9449,Pittsburgh,PA,USA,40.4416941,-79.9900861,42003.0
71576,4431566.0,HighSchool,2021,120,Julien Simon,Lincoln,USC,OLB,74.0,221.0,4,0.9446,Tacoma,WA,USA,47.2495798,-122.4398746,53053.0
71574,4432676.0,HighSchool,2021,121,Bryce Carter,Life Christian Academy,Virginia,DT,75.0,250.0,4,0.9443,Chester,VA,USA,37.3569086,-77.4421818,51041.0
71578,4432693.0,HighSchool,2021,122,Avante Dickerson,Westside,Oregon,CB,72.0,170.0,4,0.9443,Omaha,NE,USA,41.2587459,-95.9383758,31055.0
71579,4431273.0,HighSchool,2021,123,Jalil Farooq,Dr. Henry Wise,Oklahoma,WR,73.0,200.0,4,0.9442,Upper Marlboro,MD,USA,38.8165274,-76.7519753,24033.0
71581,4431521.0,HighSchool,2021,124,Ben Christman,Revere,Ohio State,OG,78.0,299.0,4,0.944,Richfield,OH,USA,41.2397772,-81.6381785,39153.0
71580,4255325.0,HighSchool,2021,125,Landon Jackson,Pleasant Grove,LSU,WDE,78.0,240.0,4,0.9436,Texarkana,TX,USA,33.44628645,-94.07638067493534,48037.0
71582,4432784.0,HighSchool,2021,126,Kyron Ware-Hudson,Mater Dei,USC,WR,73.0,200.0,4,0.9421,Santa Ana,CA,USA,33.7494951,-117.8732213,6059.0
71584,4431576.0,HighSchool,2021,127,Marcus Tate,TRU Prep Academy,Clemson,OG,76.0,318.0,4,0.9414,Miami Gardens,FL,USA,25.9423108,-80.23976495072381,12086.0
71583,4432695.0,HighSchool,2021,128,Power Echols,Zebulon B. Vance,North Carolina,ILB,73.0,206.0,4,0.9409,Charlotte,NC,USA,35.2272,-80.843083,37119.0
71606,4431393.0,HighSchool,2021,129,Jonathan Jefferson,Douglas County,Georgia,SDE,76.0,255.0,4,0.9409,Douglasville,GA,USA,33.7514966,-84.7477136,13097.0
71585,4594749.0,HighSchool,2021,130,Michael Trigg,Carrollwood Day,USC,TE,75.0,230.0,4,0.9404,Tampa,FL,USA,27.9477595,-82.458444,12057.0
71587,4875201.0,HighSchool,2021,130,Aaron Willis,Life Christian Academy,Tennessee,OLB,71.0,207.0,4,0.9398,Colonial Heights,VA,USA,37.2555718,-77.4112016,51570.0
71586,4568124.0,HighSchool,2021,131,JP Benzschawel,Grafton,Wisconsin,OT,79.0,285.0,4,0.9399,Grafton,WI,USA,43.3197265,-87.9534226,55089.0
71589,4431518.0,HighSchool,2021,132,Marcus Burris,Pleasant Grove,Texas A&M,SDE,76.0,280.0,4,0.9397,Texarkana,TX,USA,33.44628645,-94.07638067493534,48037.0
71600,4431584.0,HighSchool,2021,133,Jahvaree Ritzie,Glenn,North Carolina,SDE,77.0,274.0,4,0.9395,Kernersville,NC,USA,36.1198589,-80.0736533,37067.0
71591,4432759.0,HighSchool,2021,134,Sawyer Robertson,Coronado,Mississippi State,PRO,75.0,200.0,4,0.9392,Lubbock,TX,USA,33.5635206,-101.879336,48303.0
71608,unknown,HighSchool,2021,135,Kadarius Calloway,Philadelphia,Alabama,ATH,72.0,210.0,4,0.9394,Philadelphia,MS,USA,32.7703841,-89.1153488,28099.0
71588,4567802.0,HighSchool,2021,136,Drew Kendall,Noble And Greenough School,Boston College,OG,76.0,260.0,4,0.9393,Dedham,MA,USA,42.2489143,-71.1755732,25021.0
75278,4875201.0,HighSchool,2021,137,Aaron Willis,Life Christian Academy,Tennessee,ILB,71.0,207.0,4,0.9393,Colonial Heights,VA,USA,37.2555718,-77.4112016,51570.0
71592,4569661.0,HighSchool,2021,138,Jager Burton,Frederick Douglass,Kentucky,OG,76.0,271.0,4,0.9389,Lexington,KY,USA,38.0464066,-84.4970393,21067.0
71593,4431642.0,HighSchool,2021,139,Isaiah Johnson,St. Bernard,Arizona State,CB,74.0,180.0,4,0.9382,Playa Del Rey,CA,USA,33.9550828,-118.4367496,6037.0
71687,4683815.0,HighSchool,2021,140,Trevin Wallace,Wayne County,Kentucky,ILB,74.0,209.0,4,0.9382,Jesup,GA,USA,31.6074365,-81.8853924,13305.0
71594,4431448.0,HighSchool,2021,141,Riley Mahlman,Lakeville South,Wisconsin,OT,79.0,290.0,4,0.9381,Lakeville,MN,USA,44.650051,-93.2432791,27037.0
71562,unknown,HighSchool,2021,142,Quaydarius Davis,Skyline,Kansas,WR,72.0,193.0,4,0.9374,Dallas,TX,USA,32.7762719,-96.7968559,48113.0
71595,4635009.0,HighSchool,2021,143,J.Michael Sturdivant,Marcus,California,WR,75.0,185.0,4,0.937,Flower Mound,TX,USA,33.0283854,-97.0867203,48121.0
71596,4431197.0,HighSchool,2021,144,Romello Brinson,Northwestern,Miami,WR,74.0,180.0,4,0.937,Miami,FL,USA,25.7742658,-80.1936589,12086.0
71610,4682989.0,HighSchool,2021,145,Prince Kollie,David Crockett,Notre Dame,OLB,73.0,210.0,4,0.9367,Jonesborough,TN,USA,36.2944928,-82.4734089,47179.0
71615,4431465.0,HighSchool,2021,146,Behren Morton,Eastland,Texas Tech,PRO,74.0,185.0,4,0.9357,Eastland,TX,USA,32.4006299,-98.8194482,48133.0
71609,4629149.0,HighSchool,2021,147,Tyrion Ingram-Dawkins,Gaffney,Georgia,DT,77.0,298.0,4,0.9357,Gaffney,SC,USA,35.0717945,-81.6498195,45021.0
71597,4875179.0,HighSchool,2021,148,Carlos Del Rio-Wilson,Cartersville,Florida,PRO,75.0,215.0,4,0.9357,Cartersville,GA,USA,34.1650972,-84.7999383,13015.0
71598,4432688.0,HighSchool,2021,149,David Davidkov,New Trier,Iowa,OT,78.0,295.0,4,0.935,Winnetka,IL,USA,42.1080703,-87.7365286,17031.0
71599,4432689.0,HighSchool,2021,150,Jaylin Davies,Mater Dei,Oregon,CB,73.0,165.0,4,0.935,Santa Ana,CA,USA,33.7494951,-117.8732213,6059.0
71637,4433973.0,HighSchool,2021,151,Seven McGee,East,Oregon,APB,68.0,185.0,4,0.935,Rochester,NY,USA,43.157285,-77.615214,36055.0
71602,4431450.0,HighSchool,2021,152,Kaemen Marley,Eastern Randolph,Tennessee,ATH,74.0,206.0,4,0.9337,Ramseur,NC,USA,35.7334711,-79.6525267,37151.0
71605,4432712.0,HighSchool,2021,153,Wynden Ho'ohuli,Mililani,Nebraska,ILB,75.0,220.0,4,0.9337,Mililani,HI,USA,21.4508308,-158.0095783,15003.0
71614,unknown,HighSchool,2021,154,Kaidon Salter,Cedar Hill,Tennessee,DUAL,73.0,185.0,4,0.9335,Cedar Hill,TX,USA,32.5888072,-96.9553675,48113.0
71611,unknown,HighSchool,2021,155,TJ Bollers,Clear Creek Amana,Wisconsin,WDE,75.0,250.0,4,0.9327,Tiffin,IA,USA,41.7058469,-91.6629498,19103.0
71607,4432731.0,HighSchool,2021,156,Moliki Matavao,Liberty,Oregon,TE,78.0,240.0,4,0.9325,Henderson,NV,USA,36.0301134,-114.9826194,32003.0
71613,unknown,HighSchool,2021,157,JD Coffey,Kennedale,Texas,S,72.0,180.0,4,0.932,Kennedale,TX,USA,32.646801,-97.2258465,48439.0
71601,4432724.0,HighSchool,2021,158,Bryce Langston,Vanguard,LSU,SDE,74.0,250.0,4,0.9317,Ocala,FL,USA,29.1871986,-82.1400923,12083.0
71620,4431431.0,HighSchool,2021,159,Corey Kiner,Roger Bacon,LSU,RB,70.0,210.0,4,0.9317,Cincinnati,OH,USA,39.1014537,-84.5124602,39061.0
71612,4431546.0,HighSchool,2021,160,Ma'a Gaoteote,Bishop Gorman,Michigan State,OLB,74.0,220.0,4,0.9316,Las Vegas,NV,USA,36.1672559,-115.1485163,32003.0
71621,unknown,HighSchool,2021,161,Saivion Jones,St. James,LSU,WDE,77.0,240.0,4,0.9294,Saint James,LA,USA,29.9828,-90.8309,36103.0
71616,4683061.0,HighSchool,2021,162,Prophet Brown,Monterey Trail,USC,CB,70.0,180.0,4,0.9292,Elk Grove,CA,USA,38.4087993,-121.3716178,6067.0
71617,4431389.0,HighSchool,2021,163,Ketron Jackson,Royse City,Arkansas,WR,74.0,186.0,4,0.9292,Royse City,TX,USA,32.9761045,-96.331334,48397.0
71618,4431615.0,HighSchool,2021,164,Tyleik Williams,Unity Reed,Ohio State,DT,75.0,330.0,4,0.9289,Manassas,VA,USA,38.7509488,-77.4752667,51683.0
71622,4602197.0,HighSchool,2021,165,Andrew Mukuba,LBJ,Clemson,S,72.0,185.0,4,0.9279,Austin,TX,USA,30.2711286,-97.7436995,48453.0
71603,4431500.0,HighSchool,2021,166,Kendrick Blackshire,Duncanville,Alabama,ILB,74.0,245.0,4,0.9279,Duncanville,TX,USA,32.6518004,-96.9083366,48113.0
71652,unknown,HighSchool,2021,167,Lonnie White Jr.,Malvern Prep,Penn State,WR,74.0,210.0,4,0.9269,Malvern,PA,USA,40.034444,-75.514444,1061.0
71623,4431574.0,HighSchool,2021,168,Eli Stowers,Guyer,Texas A&M,DUAL,76.0,215.0,4,0.9269,Denton,TX,USA,33.2150386,-97.1330516,48121.0
71624,4432805.0,HighSchool,2021,169,Andre Turrentine,Ensworth,Ohio State,S,72.0,175.0,4,0.9269,Nashville,TN,USA,36.1622296,-86.7743531,47037.0
71660,4592550.0,HighSchool,2021,170,Jantzen Dunn,South Warren,Ohio State,S,74.0,178.0,4,0.9269,Bowling Green,KY,USA,36.9903199,-86.4436018,21227.0
71626,4565177.0,HighSchool,2021,171,Isaiah Brevard,Southaven,Oregon,WR,76.0,200.0,4,0.9263,Southaven,MS,USA,34.9889818,-90.0125913,28033.0
71625,4431534.0,HighSchool,2021,172,Ethan Downs,Weatherford,Oklahoma,WDE,76.0,240.0,4,0.9263,Weatherford,OK,USA,35.5261633,-98.7075744,40039.0
71627,4567784.0,HighSchool,2021,173,Jacolby George,Plantation,Miami,WR,71.0,161.0,4,0.9257,Fort Lauderdale,FL,USA,26.1223084,-80.1433786,12011.0
71631,4587722.0,HighSchool,2021,174,Troy Stellato,Cardinal Gibbons,Clemson,WR,72.0,175.0,4,0.9251,Fort Lauderdale,FL,USA,26.1223084,-80.1433786,12011.0
71628,unknown,HighSchool,2021,175,Kaine Williams,John Ehret,Alabama,S,74.0,205.0,4,0.9253,Marrero,LA,USA,29.8993723,-90.1003506,22051.0
71629,4565181.0,HighSchool,2021,176,Bralon Brown,St. Thomas Aquinas,Ole Miss,WR,75.0,190.0,4,0.925,Fort Lauderdale,FL,USA,26.1223084,-80.1433786,12011.0
71630,unknown,HighSchool,2021,177,Clinton Burton Jr.,St. Frances Academy,Boston College,CB,71.0,170.0,4,0.925,Baltimore,MD,USA,39.2908816,-76.610759,24510.0
71632,4431195.0,HighSchool,2021,178,DeAndre Boykins,Central Cabarrus,North Carolina,ATH,71.0,200.0,4,0.9249,Concord,NC,USA,35.4093772,-80.5797416,37025.0
71634,4431209.0,HighSchool,2021,179,Dacari Collins,Westlake,Clemson,WR,75.0,200.0,4,0.9248,Atlanta,GA,USA,33.7490987,-84.3901849,13121.0
71619,4432763.0,HighSchool,2021,180,Laurence Seymore,Miami Central,Miami,OG,73.0,293.0,4,0.9248,Miami,FL,USA,25.7742658,-80.1936589,12086.0
71635,4431511.0,HighSchool,2021,181,Owen Prentice,O'Dea,Washington,OG,75.0,295.0,4,0.9248,Seattle,WA,USA,47.6038321,-122.3300624,53033.0
71641,4592832.0,HighSchool,2021,182,Marcus Burke,Trinity Christian Academy,Florida,WR,75.0,180.0,4,0.9246,Jacksonville,FL,USA,30.3321838,-81.655651,12031.0
71650,4431562.0,HighSchool,2021,183,Phil Mafah,Grayson,Clemson,RB,73.0,215.0,4,0.9238,Loganville,GA,USA,33.8389977,-83.9007382,13297.0
71636,4431502.0,HighSchool,2021,184,Zaire Patterson,Winston-Salem Prep,Clemson,WDE,78.0,230.0,4,0.9237,Winston Salem,NC,USA,36.0998131,-80.2440518,37067.0
71638,4596437.0,HighSchool,2021,185,AJ Green,Union,Arkansas,ATH,71.0,194.0,4,0.9237,Tulsa,OK,USA,36.1556805,-95.9929113,40143.0
71639,unknown,HighSchool,2021,186,Jay Toia,Grace Brethren,USC,DT,74.0,315.0,4,0.9236,Simi Valley,CA,USA,34.2694474,-118.781482,6111.0
71642,4683409.0,HighSchool,2021,187,Damarius McGhee,Pensacola Catholic,LSU,CB,73.0,163.0,4,0.9232,Pensacola,FL,USA,30.421309,-87.2169149,12033.0
71640,4433968.0,HighSchool,2021,188,Byron Cardwell,Morse,Oregon,RB,72.0,203.0,4,0.9227,San Diego,CA,USA,32.7174209,-117.1627714,6073.0
71643,4567783.0,HighSchool,2021,189,James Brockermeyer,All Saints Episcopal,Alabama,OC,75.0,273.0,4,0.9224,Fort Worth,TX,USA,32.753177,-97.3327459,48439.0
71645,4597005.0,HighSchool,2021,190,Marcus Bradley,Quince Orchard,Vanderbilt,DT,75.0,270.0,4,0.9222,Gaithersburg,MD,USA,39.1434406,-77.2013705,24031.0
71644,4597679.0,HighSchool,2021,191,Luke Altmyer,Starkville,Ole Miss,PRO,74.0,190.0,4,0.9219,Starkville,MS,USA,33.4503998,-88.8183872,28105.0
71648,unknown,HighSchool,2021,192,Jackson Light,Corner Canyon,Oregon,OC,75.0,284.0,4,0.9217,Draper,UT,USA,40.5246711,-111.8638226,49035.0
71647,4569680.0,HighSchool,2021,193,Jamon Dumas-Johnson,St. Frances Academy,Georgia,ILB,73.0,235.0,4,0.9215,Baltimore,MD,USA,39.2908816,-76.610759,24510.0
71649,4432668.0,HighSchool,2021,194,Denzel Burke,Saguaro,Ohio State,ATH,72.0,189.0,4,0.9215,Scottsdale,AZ,USA,33.4942189,-111.9260184,4013.0
71651,4432661.0,HighSchool,2021,195,Rayshaun Benny,Oak Park,Michigan,DT,77.0,275.0,4,0.9213,Oak Park,MI,USA,42.4595317,-83.1821445,17031.0
71633,unknown,HighSchool,2021,196,KaTron Evans,St. Frances Academy,Tennessee,DT,76.0,320.0,4,0.9212,Baltimore,MD,USA,39.2908816,-76.610759,24510.0
71654,4432685.0,HighSchool,2021,197,Micah Crowell,East Forsyth,NC State,WR,74.0,205.0,4,0.9206,Kernersville,NC,USA,36.1198589,-80.0736533,37067.0
71604,4431552.0,HighSchool,2021,198,Ishmael Ibraheem,Kimball,Texas,CB,73.0,175.0,4,0.9206,Dallas,TX,USA,32.7762719,-96.7968559,48113.0
71653,4431535.0,HighSchool,2021,199,Jake Rubley,Valley,Kansas State,PRO,75.0,205.0,4,0.9204,West Des Moines,IA,USA,41.5645337,-93.7595281,19153.0
71656,4431517.0,HighSchool,2021,200,Calen Bullock,John Muir,USC,ATH,74.0,175.0,4,0.9201,Pasadena,CA,USA,34.1476452,-118.1444779,6037.0
71657,4432772.0,HighSchool,2021,201,Jermaine Terry,Kennedy,California,TE,76.0,235.0,4,0.9197,Richmond,CA,USA,37.9357576,-122.3477486,6013.0
71658,4875180.0,HighSchool,2021,202,Donovan McMillon,Peters Township,Florida,S,74.0,193.0,4,0.9197,Canonsburg,PA,USA,40.2625702,-80.1872797,42125.0
71659,4432717.0,HighSchool,2021,203,Elijah Jeudy,Northeast,Texas A&M,WDE,75.0,246.0,4,0.9195,Philadelphia,PA,USA,39.9527237,-75.1635262,42101.0
71662,4432664.0,HighSchool,2021,204,Gavin Blackwell,Sun Valley,North Carolina,WR,71.0,164.0,4,0.9192,Monroe,NC,USA,34.9854275,-80.5495112,37179.0
71664,4432789.0,HighSchool,2021,205,Hunter Wohler,Muskego,Wisconsin,S,73.0,190.0,4,0.9185,Muskego,WI,USA,42.905848,-88.1389779,55133.0
71661,4431330.0,HighSchool,2021,206,Jahzion Harris,Erasmus Hall,Texas A&M,WDE,76.0,215.0,4,0.9185,Brooklyn,NY,USA,40.6501038,-73.9495823,36047.0
71663,4431156.0,HighSchool,2021,207,Aaron Armitage,Blair Academy,Stanford,SDE,76.0,242.0,4,0.9183,Blairstown,NJ,USA,40.9828753,-74.9604501,34041.0
71667,4432658.0,HighSchool,2021,208,Raheem Anderson,Cass Technical,Michigan,OC,75.0,298.0,4,0.9178,Detroit,MI,USA,42.3315509,-83.0466403,26163.0
71665,4432701.0,HighSchool,2021,209,Travion Ford,Lutheran North,Missouri,WDE,76.0,232.0,4,0.9177,Saint Louis,MO,USA,38.6264178,-90.1998378,29510.0
71668,4569925.0,HighSchool,2021,210,Dietrick Pennington,Evangelical Christian,Clemson,OG,77.0,326.0,4,0.9175,Cordova,TN,USA,35.1556451,-89.7761955,47157.0
71666,4432709.0,HighSchool,2021,211,Ahmari Harvey,Florida State Univ. School,Auburn,S,70.0,171.0,4,0.9175,Tallahassee,FL,USA,30.4380832,-84.2809332,12073.0
71669,4431583.0,HighSchool,2021,212,Greg Penn III,DeMatha Catholic,LSU,ILB,73.0,225.0,4,0.9172,Hyattsville,MD,USA,38.9529442,-76.9408647,24033.0
71692,4678006.0,HighSchool,2021,213,Elijah Arroyo,Independence,Miami,TE,76.0,210.0,4,0.9171,Frisco,TX,USA,33.1506744,-96.8236116,48085.0
71670,4432675.0,HighSchool,2021,214,Zavier Carter,Hapeville Charter,LSU,OLB,76.0,193.0,4,0.9165,Atlanta,GA,USA,33.7490987,-84.3901849,13121.0
71671,4431541.0,HighSchool,2021,215,Tiaoalii Savea,Desert Pines,UCLA,SDE,75.0,265.0,4,0.916,Las Vegas,NV,USA,36.1672559,-115.1485163,32003.0
71674,4685247.0,HighSchool,2021,216,Braelon Allen,Fond Du Lac,Wisconsin,ILB,74.0,215.0,4,0.9159,Fond Du Lac,WI,USA,43.7748763,-88.4458033,55039.0
71672,4596602.0,HighSchool,2021,217,Brashard Smith,Miami Palmetto,Miami,WR,68.0,190.0,4,0.9158,Miami,FL,USA,25.7742658,-80.1936589,12086.0
71673,4567804.0,HighSchool,2021,218,Hudson Wolfe,Hardin County,Ole Miss,TE,79.0,240.0,4,0.9151,Savannah,TN,USA,35.2248034,-88.2492037,47071.0
71680,4432690.0,HighSchool,2021,219,Dematrius Davis,North Shore,Auburn,DUAL,70.0,200.0,4,0.9149,Houston,TX,USA,29.7589382,-95.3676974,48201.0
71675,4432660.0,HighSchool,2021,220,Anthony Beavers Jr.,Narbonne,USC,ATH,73.0,195.0,4,0.9149,Harbor City,CA,USA,33.7972822,-118.3004717,6037.0
71676,4432766.0,HighSchool,2021,221,Quintin Somerville,Saguaro,UCLA,SDE,73.0,257.0,4,0.9147,Scottsdale,AZ,USA,33.4942189,-111.9260184,4013.0
71681,unknown,HighSchool,2021,222,Naquan Brown,Ocean Lakes,Pittsburgh,WDE,74.0,205.0,4,0.9144,Virginia Beach,VA,USA,36.8529841,-75.9774183,51810.0
71679,4596438.0,HighSchool,2021,223,Deuce Harmon,Guyer,Texas A&M,CB,70.0,190.0,4,0.9143,Denton,TX,USA,33.2150386,-97.1330516,48121.0
71721,4431550.0,HighSchool,2021,224,Tommi Hill,Edgewater,Arizona State,ATH,73.0,185.0,4,0.9142,Orlando,FL,USA,28.5421109,-81.3790304,12095.0
71677,4431523.0,HighSchool,2021,225,Connor Colby,John F Kennedy,Iowa,OG,77.0,305.0,4,0.9142,Cedar Rapids,IA,USA,41.9758872,-91.6704053,19113.0
71678,4431256.0,HighSchool,2021,226,Cristian Dixon,Mater Dei,Michigan,WR,74.0,187.0,4,0.9141,Santa Ana,CA,USA,33.7494951,-117.8732213,6059.0
71682,4432662.0,HighSchool,2021,227,Cane Berrong,Hart County,Notre Dame,TE,76.0,230.0,4,0.9137,Hartwell,GA,USA,34.3528825,-82.932087,13147.0
71683,4570037.0,HighSchool,2021,228,Terrance Ferguson,Heritage,Oregon,TE,77.0,230.0,4,0.9136,Littleton,CO,USA,39.613321,-105.0166498,8005.0
71684,4431594.0,HighSchool,2021,229,Gabe Stephens,Mountain Island Charter,North Carolina,ATH,75.0,205.0,4,0.9135,Mount Holly,NC,USA,35.2976601,-81.0162049,37071.0
71685,4432728.0,HighSchool,2021,230,Ryan Linthicum,Damascus,Clemson,OC,76.0,275.0,4,0.9135,Damascus,MD,USA,39.2884381,-77.2038717,24031.0
71689,4691828.0,HighSchool,2021,231,Daymon David,Franklin,Oregon,S,73.0,178.0,4,0.9135,Reisterstown,MD,USA,39.4695489,-76.8294213,24005.0
71688,4602970.0,HighSchool,2021,231,Jordan Poole,West Stanly,NC State,ATH,72.0,225.0,4,0.9132,Oakboro,NC,USA,35.2257007,-80.3289521,37167.0
71686,4873637.0,HighSchool,2021,232,Cody Brown,Parkview,Miami,RB,72.0,217.0,4,0.9134,Lilburn,GA,USA,33.8901036,-84.1429719,13135.0
75279,4602970.0,HighSchool,2021,233,Jordan Poole,West Stanly,NC State,OLB,72.0,225.0,4,0.9132,Oakboro,NC,USA,35.2257007,-80.3289521,37167.0
71690,4431433.0,HighSchool,2021,234,Kalen King,Cass Technical,Penn State,CB,71.0,170.0,4,0.9131,Detroit,MI,USA,42.3315509,-83.0466403,26163.0
71700,4596347.0,HighSchool,2021,235,Donaven McCulley,Lawrence North,Indiana,DUAL,77.0,195.0,4,0.913,Indianapolis,IN,USA,39.7683331,-86.1583502,18097.0
71693,4592570.0,HighSchool,2021,236,Ian Jackson,Prattville,Alabama,OLB,74.0,225.0,4,0.9126,Prattville,AL,USA,32.4640245,-86.4596966,1001.0
71694,4431509.0,HighSchool,2021,237,Kaden Prather,Northwest,West Virginia,WR,75.0,210.0,4,0.9125,Germantown,MD,USA,39.1731621,-77.2716502,24031.0
71691,4432762.0,HighSchool,2021,238,Shedeur Sanders,Trinity Christian School,Jackson State,PRO,73.0,198.0,4,0.9125,Cedar Hill,TX,USA,32.5888072,-96.9553675,48113.0
71695,4433972.0,HighSchool,2021,239,Latrell McCutchin,LBJ,Oklahoma,CB,73.0,176.0,4,0.9122,Austin,TX,USA,30.2711286,-97.7436995,48453.0
71696,4431341.0,HighSchool,2021,240,Jabari Ishmael,Columbus,Miami,WDE,77.0,210.0,4,0.912,Miami,FL,USA,25.7742658,-80.1936589,12086.0
71701,4569682.0,HighSchool,2021,241,Audric Estime,St Joseph Regional,Notre Dame,RB,73.0,215.0,4,0.9108,Montvale,NJ,USA,41.0467635,-74.0229173,34003.0
71697,4567803.0,HighSchool,2021,242,Teddy Prochazka,Elkhorn South,Nebraska,OT,80.0,280.0,4,0.9105,Omaha,NE,USA,41.2587459,-95.9383758,31055.0
71773,4708838.0,HighSchool,2021,243,John Lewis,Germantown,Mississippi State,OLB,76.0,225.0,4,0.9101,Madison,MS,USA,32.4618086,-90.1153638,28089.0
71699,4432702.0,HighSchool,2021,244,Thad Franklin,Chaminade-Madonna Prep,Miami,RB,72.0,225.0,4,0.9098,Hollywood,FL,USA,26.0112014,-80.1494901,12011.0
71706,4602699.0,HighSchool,2021,245,Kamari Lassiter,American Christian,Georgia,CB,72.0,185.0,4,0.9096,Tuscaloosa,AL,USA,33.2095614,-87.5675258,1125.0
71702,4565180.0,HighSchool,2021,246,Peter Costelli,Mission Viejo,Utah,DUAL,75.0,205.0,4,0.9095,Mission Viejo,CA,USA,33.5965685,-117.659405,6059.0
71762,4879611.0,HighSchool,2021,247,Amari Daniels,Miami Central,Texas A&M,APB,68.0,200.0,4,0.909,Miami,FL,USA,25.7742658,-80.1936589,12086.0
71704,4432696.0,HighSchool,2021,248,Kamarro Edmonds,Havelock,North Carolina,RB,71.0,227.0,4,0.9088,Havelock,NC,USA,34.8785,-76.9014457,37049.0
71703,4611768.0,HighSchool,2021,249,Jaydon Hood,St. Thomas Aquinas,Michigan,ILB,73.0,212.0,4,0.9088,Fort Lauderdale,FL,USA,26.1223084,-80.1433786,12011.0
71707,4431601.0,HighSchool,2021,250,Hunter Washington,Katy,Florida State,CB,71.0,178.0,4,0.9082,Katy,TX,USA,29.7857853,-95.8243956,48157.0
71705,4431529.0,HighSchool,2021,251,Jaeden Roberts,North Shore,Alabama,OG,77.0,340.0,4,0.9084,Houston,TX,USA,29.7589382,-95.3676974,48201.0
71708,unknown,HighSchool,2021,252,Theodore Knox,The Woodlands,Mississippi State,WR,70.0,167.0,4,0.9079,The Woodlands,TX,USA,30.1734194,-95.504686,48339.0
71711,4432769.0,HighSchool,2021,253,Eli Sutton,Brentwood Academy,North Carolina,OT,79.0,285.0,4,0.9079,Brentwood,TN,USA,36.0325687,-86.7825235,47187.0
71709,4431435.0,HighSchool,2021,254,Randolph Kpai,Washington,Nebraska,OLB,75.0,185.0,4,0.9079,Sioux Falls,SD,USA,43.5499749,-96.700327,46099.0
71771,unknown,HighSchool,2021,255,Devonta Smith,La Salle,Alabama,CB,72.0,185.0,4,0.9076,Cincinnati,OH,USA,39.1014537,-84.5124602,39061.0
71713,4565554.0,HighSchool,2021,256,Nahki Johnson,West Mifflin Area,Pittsburgh,WDE,75.0,225.0,4,0.9073,Homestead,PA,USA,40.4059025,-79.9119948,42003.0
71712,4431406.0,HighSchool,2021,257,Taizse Johnson,St. John's,Maryland,DT,73.0,290.0,4,0.9073,Washington,DC,USA,38.8949855,-77.0365708,11001.0
71710,4595348.0,HighSchool,2021,258,Malik Nabers,Southside,LSU,WR,72.0,190.0,4,0.9073,Youngsville,LA,USA,30.0996471,-91.9901206,22055.0
71714,4431405.0,HighSchool,2021,259,Tysheem Johnson,Neumann Goretti,Ole Miss,S,70.0,190.0,4,0.9072,Philadelphia,PA,USA,39.9527237,-75.1635262,42101.0
71716,4431531.0,HighSchool,2021,260,George Rooks,St. Peters Prep,Michigan,DT,76.0,260.0,4,0.907,Jersey City,NJ,USA,40.7281575,-74.0776417,34017.0
71717,4431412.0,HighSchool,2021,261,Yanni Karlaftis,West Lafayette,Purdue,OLB,75.0,203.0,4,0.9069,West Lafayette,IN,USA,40.4258686,-86.9080655,18157.0
71715,unknown,HighSchool,2021,262,Aaron McLaughlin,Denmark,NC State,PRO,77.0,219.0,4,0.9067,Alpharetta,GA,USA,34.0709576,-84.2747329,13121.0
71698,4431568.0,HighSchool,2021,263,Jaquez Smith,Westlake,Indiana,WR,73.0,190.0,4,0.9065,Atlanta,GA,USA,33.7490987,-84.3901849,13121.0
71720,4432719.0,HighSchool,2021,264,Jamier Johnson,John Muir,Texas,CB,72.0,170.0,4,0.9064,Pasadena,CA,USA,34.1476452,-118.1444779,6037.0
71719,4683450.0,HighSchool,2021,265,Tommy Akingbesote,Charles Herbert Flowers,Maryland,DT,76.0,270.0,4,0.9062,Upper Marlboro,MD,USA,38.8165274,-76.7519753,24033.0
71729,unknown,HighSchool,2021,266,Derrick Harris Jr.,New Caney,Texas,WDE,74.0,215.0,4,0.9058,New Caney,TX,USA,30.155216,-95.2113221,48339.0
71725,4602926.0,HighSchool,2021,267,Devin Kirkwood,Junipero Serra,UCLA,ATH,75.0,175.0,4,0.9057,Gardena,CA,USA,33.8963593,-118.3053037,6037.0
71728,4432758.0,HighSchool,2021,268,Jaylen Reed,Martin Luther King,Penn State,S,72.0,190.0,4,0.9057,Detroit,MI,USA,42.3315509,-83.0466403,26163.0
71722,4431473.0,HighSchool,2021,269,Yousef Mugharbil,Murphy,Florida,OG,77.0,330.0,4,0.9056,Murphy,NC,USA,35.0875836,-84.0346315,37039.0
71723,4682509.0,HighSchool,2021,270,Malik McClain,IMG Academy,Florida State,WR,76.0,195.0,4,0.9056,Bradenton,FL,USA,27.4989278,-82.5748194,12081.0
71731,4875270.0,HighSchool,2021,271,Ezra Dotson-Oyetade,Lakeview Centennial,Arizona State,OC,75.0,285.0,4,0.9055,Garland,TX,USA,32.912624,-96.6388833,48113.0
71732,4432684.0,HighSchool,2021,272,Greg Crippen,IMG Academy,Michigan,OC,76.0,285.0,4,0.9054,Bradenton,FL,USA,27.4989278,-82.5748194,12081.0
71730,4569727.0,HighSchool,2021,273,Louis Hansen,St. Sebastian's,Michigan,TE,76.0,232.0,4,0.9054,Needham,MA,USA,42.283431,-71.2328329,25021.0
71726,4595352.0,HighSchool,2021,274,Alijah Clark,Camden,Rutgers,CB,74.0,180.0,4,0.9052,Camden,NJ,USA,39.9448402,-75.1198911,34007.0
71727,4603749.0,HighSchool,2021,275,Nathan Rawlins-Kibonge,Jefferson,Oklahoma,SDE,79.0,240.0,4,0.9051,Portland,OR,USA,45.5202471,-122.6741949,41051.0
71741,4603193.0,HighSchool,2021,276,Jardin Gilbert,University Lab,Texas A&M,S,73.0,175.0,4,0.905,Baton Rouge,LA,USA,30.4459596,-91.18738,22033.0
71735,4432742.0,HighSchool,2021,277,Dontavius Nash,Hunter Huss,North Carolina,S,75.0,185.0,4,0.9048,Gastonia,NC,USA,35.2622158,-81.1838794,37071.0
71733,4678010.0,HighSchool,2021,278,Kyron Drones,Shadow Creek,Baylor,DUAL,74.0,195.0,4,0.9046,Pearland,TX,USA,29.5639758,-95.2864299,48039.0
71734,4569922.0,HighSchool,2021,279,Khayri Banton,West Side,Rutgers,OLB,74.0,220.0,4,0.9045,Newark,NJ,USA,40.735657,-74.1723667,34013.0
71736,4594322.0,HighSchool,2021,280,Shambre Jackson,Boone,Florida State,SDE,74.0,230.0,4,0.9042,Orlando,FL,USA,28.5421109,-81.3790304,12095.0
71739,4431569.0,HighSchool,2021,281,Jonah Miller,Sahuaro,Oregon,OG,78.0,260.0,4,0.904,Tucson,AZ,USA,32.2228765,-110.9748477,4019.0
71737,4567706.0,HighSchool,2021,282,Omarion Cooper,Lehigh Senior,Florida State,CB,72.0,170.0,4,0.904,Lehigh Acres,FL,USA,26.6091509,-81.652407,12071.0
71743,4431606.0,HighSchool,2021,283,Ahmonte Watkins,Klein Forest,TCU,APB,71.0,175.0,4,0.9034,Houston,TX,USA,29.7589382,-95.3676974,48201.0
71745,4431497.0,HighSchool,2021,284,Mavin Anderson,Mission Viejo,California,WR,72.0,195.0,4,0.9033,Mission Viejo,CA,USA,33.5965685,-117.659405,6059.0
71742,4601080.0,HighSchool,2021,285,Raheim Sanders,Rockledge,Arkansas,ATH,74.0,210.0,4,0.9036,ROCKLEDGE,FL,USA,28.3137515,-80.72421890178558,12009.0
71747,4431514.0,HighSchool,2021,286,Daejon Reynolds,Grayson,Florida,WR,74.0,210.0,4,0.903,Loganville,GA,USA,33.8389977,-83.9007382,13297.0
71746,4432779.0,HighSchool,2021,287,Mason Tufaga,St. Louis,Utah,ILB,73.0,210.0,4,0.9027,Honolulu,HI,USA,21.304547,-157.8556764,15003.0
71744,unknown,HighSchool,2021,288,Dreyden Norwood,Northside,Texas A&M,CB,72.0,175.0,4,0.9027,Fort Smith,AR,USA,35.3872218,-94.4248983,5131.0
71748,4643625.0,HighSchool,2021,289,Kai Millner,Higley,California,PRO,74.0,188.0,4,0.9023,Gilbert,AZ,USA,33.3527632,-111.7890373,4013.0
71750,4682490.0,HighSchool,2021,290,Chase Smith,Melbourne Senior,Miami,ATH,75.0,190.0,4,0.9019,Melbourne,FL,USA,28.0836269,-80.6081089,12009.0
71766,4596539.0,HighSchool,2021,291,Yulkeith Brown,Miami Central,Texas A&M,ATH,70.0,174.0,4,0.9018,Miami,FL,USA,25.7742658,-80.1936589,12086.0
75280,unknown,HighSchool,2021,292,Jordon Thomas,Memorial,Texas,SDE,75.0,240.0,4,0.9016,Port Arthur,TX,USA,29.8988618,-93.9288723,48245.0
71751,unknown,HighSchool,2021,293,Junior Alexander,Kennedy Catholic,Arizona State,WR,75.0,189.0,4,0.9016,Burien,WA,USA,47.469918,-122.3485274,53033.0
71749,4432776.0,HighSchool,2021,294,Jabez Tinae,Kennedy Catholic,Washington,WR,73.0,187.0,4,0.9016,Burien,WA,USA,47.469918,-122.3485274,53033.0
71752,unknown,HighSchool,2021,295,Jordon Thomas,Memorial,Texas,WDE,75.0,240.0,4,0.9013,Port Arthur,TX,USA,29.8988618,-93.9288723,48245.0
71753,4431439.0,HighSchool,2021,295,Will Latu,Bethel,Washington,ATH,74.0,221.0,4,0.9014,Spanaway,WA,USA,47.0979462,-122.4243422,53053.0
71754,4432706.0,HighSchool,2021,296,Antonio Harmon,Kosciusko,Mississippi State,WR,76.0,205.0,4,0.9014,Kosciusko,MS,USA,33.0576295,-89.5875764,28007.0
71755,4431501.0,HighSchool,2021,297,James BlackStrain,Holy Trinity Episcopal Academy,Georgia Tech,WR,74.0,190.0,4,0.9012,Cocoa,FL,USA,28.3553873,-80.7318827,12009.0
71757,4431525.0,HighSchool,2021,298,Dekel Crowdus,Frederick Douglass,Kentucky,WR,70.0,165.0,4,0.9011,Lexington,KY,USA,38.0464066,-84.4970393,21067.0
71756,4431623.0,HighSchool,2021,299,Trey Zuhn,Fossil Ridge,Texas A&M,OT,78.0,300.0,4,0.9008,Fort Collins,CO,USA,40.5508527,-105.0668085,8069.0
71738,4431596.0,HighSchool,2021,300,Justice Sullivan,Eden Prairie,Iowa,WDE,73.0,220.0,4,0.9008,Eden Prairie,MN,USA,44.8546856,-93.470786,27053.0
71758,4431544.0,HighSchool,2021,301,Jonathan Flowe,Upland,Oregon,OLB,73.0,200.0,4,0.9002,Upland,CA,USA,34.09751,-117.6483876,6071.0
71760,4431468.0,HighSchool,2021,302,Jordan Mosley,McGill Toolen,Northwestern,WR,72.0,190.0,4,0.8998,Mobile,AL,USA,30.6943566,-88.0430541,1097.0
71763,4586313.0,HighSchool,2021,303,Terrence Cooks,Shadow Creek,Texas,OLB,74.0,210.0,4,0.8994,Pearland,TX,USA,29.5639758,-95.2864299,48039.0
71770,4683230.0,HighSchool,2021,304,Philip Riley,Bloomingdale,Notre Dame,CB,72.0,195.0,4,0.8992,Valrico,FL,USA,27.9484265,-82.23621545220522,12057.0
71765,4431600.0,HighSchool,2021,305,Jayden Thomas,Pace Academy,Notre Dame,WR,73.0,205.0,4,0.8991,Atlanta,GA,USA,33.7490987,-84.3901849,13121.0
71764,4600388.0,HighSchool,2021,306,Chief Borders,Heard County,Florida,OLB,77.0,242.0,4,0.8988,Carrollton,GA,USA,33.5801103,-85.0766113,13045.0
71768,4690780.0,HighSchool,2021,307,Rod Orr,Gadsden City,Florida State,OT,79.0,296.0,4,0.8988,Gadsden,AL,USA,34.010929,-85.9989596,1055.0
71769,4432787.0,HighSchool,2021,308,Gage Wilcox,Jefferson,Florida,TE,76.0,228.0,4,0.8985,Tampa,FL,USA,27.9477595,-82.458444,12057.0
71646,4431537.0,HighSchool,2021,309,Trevonte Rucker,Vanguard,Jackson State,WR,71.0,157.0,4,0.8978,Ocala,FL,USA,29.1871986,-82.1400923,12083.0
71775,4683131.0,HighSchool,2021,310,Zen Michalski,Floyd Central,Ohio State,OT,78.0,288.0,4,0.8974,Floyds Knobs,IN,USA,38.3243841,-85.8735251,18043.0
71774,4683065.0,HighSchool,2021,311,Damond Harmon,Highland Springs,Oklahoma,CB,73.0,178.0,4,0.8974,Highland Springs,VA,USA,37.5460121,-77.3278441,51087.0
71776,unknown,HighSchool,2021,312,Dink Jackson,Eau Gallie,Ole Miss,S,74.0,185.0,4,0.8972,Melbourne,FL,USA,28.0836269,-80.6081089,12009.0
71827,4432754.0,HighSchool,2021,313,Ricky Parks,Gaither,Utah,RB,70.0,192.0,4,0.8972,Tampa,FL,USA,27.9477595,-82.458444,12057.0
71772,4597334.0,HighSchool,2021,314,Xamarion Gordon,Warren,USC,S,74.0,190.0,4,0.8972,Downey,CA,USA,33.942215,-118.1235646,6037.0
71777,4612202.0,HighSchool,2021,315,Aden Kelley,Thomas-Fay-Custer,Oklahoma State,DT,75.0,275.0,4,0.8966,Thomas,OK,USA,35.7442157,-98.747584,40039.0
71779,4432722.0,HighSchool,2021,316,Athan Kaliakmanis,Antioch Community,Minnesota,DUAL,76.0,205.0,4,0.8964,Antioch,IL,USA,42.4772418,-88.0956396,17097.0
71778,4432744.0,HighSchool,2021,317,Julian Nixon,Centennial,Tennessee,WR,75.0,230.0,4,0.8964,Roswell,GA,USA,34.02332,-84.360022,13121.0
71780,4566384.0,HighSchool,2021,318,Zakee Wheatley,Archbishop Spalding,Penn State,S,74.0,180.0,4,0.8962,Severn,MD,USA,39.1278864,-76.6869128,24003.0
71718,4682762.0,HighSchool,2021,319,Ke'Travion Hargrove,Ruston,Mississippi State,RB,71.0,185.0,4,0.8961,Ruston,LA,USA,32.5232053,-92.637927,22061.0
71781,4432720.0,HighSchool,2021,320,Caleb Johnson,Trinity Catholic,Notre Dame,OT,79.0,295.0,4,0.8958,Ocala,FL,USA,29.1871986,-82.1400923,12083.0
71782,4683794.0,HighSchool,2021,321,Davon Townley,North Senior,Penn State,SDE,78.0,220.0,4,0.8958,Minneapolis,MN,USA,44.9772995,-93.2654692,27053.0
71783,4432751.0,HighSchool,2021,322,Steven Ortiz,Desert Edge,Minnesota,CB,72.0,175.0,4,0.8958,Goodyear,AZ,USA,33.4353672,-112.3576005,4013.0
71784,4431612.0,HighSchool,2021,323,Keanu Williams,Clovis,Oregon,SDE,77.0,290.0,4,0.8958,Clovis,CA,USA,36.8252277,-119.7029194,6019.0
71759,4710344.0,HighSchool,2021,324,Titus Mokiao-Atimalala,James Campbell,UCF,ATH,73.0,170.0,4,0.8958,Ewa Beach,HI,USA,21.315603,-158.008804,15003.0
71787,4431530.0,HighSchool,2021,325,Marquis Robinson,Milton,Auburn,DT,75.0,300.0,4,0.8958,Milton,FL,USA,30.6324149,-87.0396881,12113.0
71785,4594277.0,HighSchool,2021,326,Jaylin Smith,Bishop Alemany,USC,ATH,71.0,180.0,4,0.8954,Mission Hills,CA,USA,34.687584,-120.43901754304564,6083.0
71789,4596363.0,HighSchool,2021,327,Kamren Kinchens,Northwestern,Miami,S,71.0,201.0,4,0.8954,Miami,FL,USA,25.7742658,-80.1936589,12086.0
71917,4683158.0,HighSchool,2021,328,Arland Bruce IV,Ankeny,Iowa,ATH,70.0,195.0,4,0.8952,Olathe,KS,USA,38.8838856,-94.81887,20091.0
71791,4570043.0,HighSchool,2021,329,Mac Uihlein,Lake Forest,Northwestern,ILB,73.0,215.0,4,0.8952,Lake Forest,IL,USA,42.2586342,-87.840625,17097.0
71792,4596362.0,HighSchool,2021,330,Justus Boone,Sumter,Florida,SDE,77.0,250.0,4,0.8951,Sumter,SC,USA,33.9204354,-80.3414693,45085.0
71790,4913159.0,HighSchool,2021,331,Jaylen Anderson,Perry,West Virginia,APB,72.0,205.0,4,0.8951,Perry,OH,USA,41.760326,-81.140932,39085.0
71788,4596679.0,HighSchool,2021,332,Patrick Payton,Northwestern,Florida State,OLB,77.0,205.0,4,0.895,Miami,FL,USA,25.7742658,-80.1936589,12086.0
71793,4682789.0,HighSchool,2021,333,Logan Taylor,Episcopal,Virginia,OT,80.0,290.0,4,0.8948,Alexandria,VA,USA,38.8051095,-77.0470229,51510.0
71843,4596439.0,HighSchool,2021,334,Dominic Lovett,East St. Louis,Missouri,WR,70.0,175.0,4,0.8947,Belleville,IL,USA,38.5200504,-89.9839935,17163.0
71795,4634711.0,HighSchool,2021,335,Michael McLaughlin,Marjory Stoneman Douglas,Miami,OT,79.0,290.0,4,0.8939,Pompano Beach,FL,USA,26.2378597,-80.1247667,12011.0
71799,4431199.0,HighSchool,2021,336,Markevious Brown,IMG Academy,Ole Miss,CB,72.0,170.0,4,0.8938,Bradenton,FL,USA,27.4989278,-82.5748194,12081.0
71798,4602969.0,HighSchool,2021,337,Bryson Nesbit,South Mecklenburg,North Carolina,TE,78.0,235.0,4,0.8937,Charlotte,NC,USA,35.2272,-80.843083,37119.0
71848,4602389.0,HighSchool,2021,338,Jeffrey Bassa,Kearns,Oregon,S,75.0,200.0,4,0.8937,Salt Lake City,UT,USA,40.7596198,-111.8867975,49035.0
71800,4433965.0,HighSchool,2021,339,Brandon Campbell,Katy,USC,RB,70.0,190.0,4,0.8936,Katy,TX,USA,29.7857853,-95.8243956,48157.0
71796,4683264.0,HighSchool,2021,340,Tate Williams,Wall,Baylor,OG,76.0,264.0,4,0.8935,Wall,TX,USA,31.3743455,-100.3036601,48451.0
71802,4596448.0,HighSchool,2021,341,Mar'Keise Irving,Hillcrest,Minnesota,RB,70.0,175.0,4,0.8933,Country Club Hills,IL,USA,41.5680898,-87.7203257,17031.0
71801,4602936.0,HighSchool,2021,342,Morice Blackwell,Martin,Texas,OLB,73.0,196.0,4,0.8933,Arlington,TX,USA,32.701939,-97.105623790337,48439.0
71953,4683515.0,HighSchool,2021,343,Leo Blackburn,Westlake,Georgia Tech,TE,77.0,230.0,4,0.893,Atlanta,GA,USA,33.7490987,-84.3901849,13121.0
71819,unknown,HighSchool,2021,344,Christian Lewis,Pleasant Grove,Kentucky,WR,75.0,190.0,4,0.8929,Pleasant Grove,AL,USA,33.4909405,-86.9702714,1073.0
71803,4874527.0,HighSchool,2021,345,Sam Jackson,Naperville Central,TCU,DUAL,72.0,185.0,4,0.8929,Naperville,IL,USA,41.7728699,-88.1479278,17043.0
71761,4569659.0,HighSchool,2021,346,Josh Simmons,Helix,San Diego State,OG,78.0,280.0,4,0.8925,La Mesa,CA,USA,32.7678288,-117.0230839,6073.0
71804,4570035.0,HighSchool,2021,347,Jaden Alexis,Monarch,Texas,WR,71.0,185.0,4,0.8925,Pompano Beach,FL,USA,26.2378597,-80.1247667,12011.0
71805,4603186.0,HighSchool,2021,348,Jack Bech,St. Thomas More,LSU,WR,74.0,215.0,4,0.8925,Lafayette,LA,USA,30.2240897,-92.0198427,22055.0
71806,4596357.0,HighSchool,2021,349,Kechaun Bennett,Suffield Academy,Michigan,SDE,76.0,220.0,4,0.8925,Suffield,CT,USA,41.9816944,-72.6506604,9003.0
71807,4432732.0,HighSchool,2021,350,Walker Merrill,Brentwood,Tennessee,WR,73.0,178.0,4,0.8925,Brentwood,TN,USA,36.0325687,-86.7825235,47187.0
71808,4592823.0,HighSchool,2021,351,Beau Stephens,Blue Springs,Iowa,OT,78.0,295.0,4,0.8918,Blue Springs,MO,USA,39.017316,-94.282265,29095.0
71809,4682618.0,HighSchool,2021,352,Cooper DeJean,Battle Creek-Ida Grove,Iowa,S,74.0,195.0,4,0.8917,Ida Grove,IA,USA,42.3449871,-95.4716666,19093.0
71810,4592836.0,HighSchool,2021,353,Caleb Tiernan,Detroit Country Day,Northwestern,OT,79.0,280.0,4,0.8917,Livonia,MI,USA,42.36837,-83.3527097,26163.0
71811,4683237.0,HighSchool,2021,354,Keagan Johnson,Bellevue West,Iowa,ATH,73.0,180.0,4,0.8917,Bellevue,NE,USA,41.1366494,-95.8907373,31153.0
71876,4678008.0,HighSchool,2021,355,Jonathon Brooks,Hallettsville,Texas,RB,72.0,185.0,4,0.8917,Hallettsville,TX,USA,29.4438528,-96.9410929,48285.0
71812,4609203.0,HighSchool,2021,356,Deven Eastern,Shakopee,Minnesota,SDE,78.0,280.0,4,0.8915,Shakopee,MN,USA,44.7980186,-93.5268986,27139.0
71767,4431520.0,HighSchool,2021,357,Chaz Chambliss,Carrollton,Georgia,OLB,74.0,239.0,4,0.8914,Carrollton,GA,USA,33.5801103,-85.0766113,13045.0
71813,4683149.0,HighSchool,2021,358,Benjamin Perry,Mount Carmel,Louisville,S,75.0,190.0,4,0.8906,Chicago,IL,USA,41.8755616,-87.6244212,17031.0
71814,4682747.0,HighSchool,2021,359,Jordan Mukes,Choctaw,Oklahoma,S,76.0,192.0,4,0.8902,Choctaw,OK,USA,35.4975654,-97.2689263,40109.0
71817,4570741.0,HighSchool,2021,360,Akili Calhoun,Liberty,California,WDE,76.0,245.0,4,0.8901,Brentwood,CA,USA,37.9317766,-121.6960266,6013.0
71818,5080699.0,HighSchool,2021,361,Logan Fano,Timpview,BYU,WDE,76.0,230.0,3,0.8896,Spanish Fork,UT,USA,40.114955,-111.654923,49049.0
71824,4592531.0,HighSchool,2021,362,Ari Patu,Folsom,Stanford,DUAL,76.0,205.0,3,0.8894,Folsom,CA,USA,38.6779591,-121.1760583,6067.0
71822,4684967.0,HighSchool,2021,363,George Wilson,Green Run,Florida State,WDE,77.0,214.0,3,0.8893,Virginia Beach,VA,USA,36.8529841,-75.9774183,51810.0
71823,4592573.0,HighSchool,2021,364,Michael Jackson,Desert Pines,USC,WR,72.0,198.0,3,0.8893,Las Vegas,NV,USA,36.1672559,-115.1485163,32003.0
71830,4596345.0,HighSchool,2021,365,Jamari Buddin,Belleville,Penn State,OLB,74.0,215.0,3,0.8893,Belleville,MI,USA,42.2048414,-83.4852106,17163.0
71820,4601283.0,HighSchool,2021,366,Trevion Cooley,Knightdale,Louisville,RB,71.0,208.0,3,0.8892,Knightdale,NC,USA,35.7878975,-78.4822938,37183.0
71825,4683093.0,HighSchool,2021,367,Josh McCarron,Archbishop Murphy,Virginia,WDE,76.0,215.0,3,0.8891,Everett,WA,USA,47.9673056,-122.2013998,53061.0
71826,4875183.0,HighSchool,2021,368,Desmond Watson,Armwood,Florida,DT,77.0,380.0,3,0.8891,Seffner,FL,USA,27.998541000000003,-82.27488400114905,12057.0
71828,4431461.0,HighSchool,2021,369,Chamon Metayer,North Miami,Cincinnati,ATH,77.0,220.0,3,0.8891,Miami,FL,USA,25.7742658,-80.1936589,12086.0
71829,4431414.0,HighSchool,2021,370,Tim Keenan,Ramsay,Alabama,DT,74.0,330.0,3,0.8891,Birmingham,AL,USA,33.5206824,-86.8024326,1073.0
71832,4566094.0,HighSchool,2021,371,Jacob Rodriguez,Rider,Virginia,ATH,74.0,205.0,3,0.889,Wichita Falls,TX,USA,33.9137085,-98.4933873,48485.0
71844,4604986.0,HighSchool,2021,372,MJ Daniels,George County,Ole Miss,ATH,75.0,200.0,3,0.8889,Lucedale,MS,USA,30.9251869,-88.5900235,28039.0
71794,4565184.0,HighSchool,2021,373,Jerand Bradley,DeSoto,Texas Tech,WR,77.0,200.0,3,0.8889,DeSoto,TX,USA,32.6061241,-96.865612653687,48113.0
71821,4603185.0,HighSchool,2021,374,Markus Allen,Northmont,Wisconsin,WR,74.0,190.0,3,0.8889,Clayton,OH,USA,39.8631101,-84.3605022,39113.0
71833,unknown,HighSchool,2021,375,Tar'varish Dawson,Lehigh Senior,Auburn,ATH,70.0,175.0,3,0.8884,Lehigh Acres,FL,USA,26.6091509,-81.652407,12071.0
71834,4597241.0,HighSchool,2021,376,Derek Wilkins,Santa Margarita Catholic,California,SDE,76.0,250.0,3,0.8884,Rancho Santa Margarita,CA,USA,33.6408845,-117.6029341,6059.0
71835,4635008.0,HighSchool,2021,377,Keon Coleman,Opelousas Catholic School,Michigan State,WR,76.0,200.0,3,0.8884,Opelousas,LA,USA,30.5335302,-92.081509,22097.0
72005,4708089.0,HighSchool,2021,378,Jake Ratzlaff,Rosemount Senior,Wisconsin,OLB,74.0,220.0,3,0.8884,Rosemount,MN,USA,44.7391873,-93.12611,27037.0
71836,4596666.0,HighSchool,2021,379,Bryce Steele,Millbrook,Boston College,ILB,73.0,207.0,3,0.8884,Raleigh,NC,USA,35.7803977,-78.6390989,37183.0
71871,unknown,HighSchool,2021,380,Hal Presley,Mansfield Summit,Auburn,WR,75.0,190.0,3,0.8884,Arlington,TX,USA,32.701939,-97.105623790337,48439.0
71837,4597500.0,HighSchool,2021,381,Adonai Mitchell,Cane Ridge,Georgia,WR,75.0,190.0,3,0.8883,Antioch,TN,USA,36.0806394,-83.7799037,47093.0
71831,4598574.0,HighSchool,2021,382,Darryl Peterson,Archbishop Hoban,Wisconsin,OLB,75.0,235.0,3,0.8882,Akron,OH,USA,41.083064,-81.518485,39153.0
71839,4683325.0,HighSchool,2021,383,Bubba Chandler,North Oconee,Clemson,PRO,76.0,195.0,3,0.8879,Bogart,GA,USA,33.949281,-83.534608,13219.0
71840,4563007.0,HighSchool,2021,384,Nick Elksnis,Episcopal,Florida,TE,78.0,220.0,3,0.8877,Jacksonville,FL,USA,30.3321838,-81.655651,12031.0
71841,4431572.0,HighSchool,2021,385,Najee Story,Solon,Northwestern,SDE,76.0,235.0,3,0.8877,Solon,OH,USA,41.3897764,-81.4412259,39035.0
71838,4682479.0,HighSchool,2021,386,Mason Murphy,J Serra Catholic,USC,OT,77.0,290.0,3,0.8875,San Juan Capistrano,CA,USA,33.5016932,-117.6625509,6059.0
71842,4682565.0,HighSchool,2021,387,Tyler Macon,East St. Louis,Missouri,DUAL,71.0,200.0,3,0.8875,East Saint Louis,IL,USA,38.6244952,-90.1509429,17163.0
71816,4432705.0,HighSchool,2021,388,Bryson Green,Allen,Oklahoma State,WR,72.0,203.0,3,0.8874,Allen,TX,USA,33.1031744,-96.6705503,48085.0
71845,4431214.0,HighSchool,2021,389,Hayden Conner,Taylor,Texas,OT,77.0,317.0,3,0.8872,Katy,TX,USA,29.7857853,-95.8243956,48157.0
71889,4596541.0,HighSchool,2021,390,Jordan Young,Gaither,Florida,CB,72.0,185.0,3,0.8872,Tampa,FL,USA,27.9477595,-82.458444,12057.0
71846,4570038.0,HighSchool,2021,391,Sam Hart,Cherokee Trail,Ohio State,TE,77.0,225.0,3,0.8871,Aurora,CO,USA,39.729432,-104.8319196,8005.0
71847,unknown,HighSchool,2021,392,Khari Gee,Woodward Academy,Notre Dame,S,75.0,185.0,3,0.8871,Atlanta,GA,USA,33.7490987,-84.3901849,13121.0
71849,4683173.0,HighSchool,2021,393,Trenilyas Tatum,Mount Zion,Georgia Tech,OLB,74.0,215.0,3,0.8871,Jonesboro,GA,USA,33.5215013,-84.3538128,13063.0
71851,4683059.0,HighSchool,2021,394,Collin Oliver,Santa Fe,Oklahoma State,ILB,74.0,220.0,3,0.8868,Edmond,OK,USA,35.6571367,-97.4649038,40109.0
71850,4595024.0,HighSchool,2021,395,Connor Tollison,Jackson,Missouri,OT,77.0,300.0,3,0.8864,Jackson,MO,USA,37.3828316,-89.6684487,29031.0
71852,4683487.0,HighSchool,2021,396,Joe Alt,Totino-Grace,Notre Dame,OT,79.0,283.0,3,0.8864,Minneapolis,MN,USA,44.9772995,-93.2654692,27053.0
71853,4431332.0,HighSchool,2021,397,DJ Harvey,Sierra Canyon,Virginia Tech,CB,71.0,166.0,3,0.8863,Chatsworth,CA,USA,34.2595715,-118.6023247,6037.0
71854,4612839.0,HighSchool,2021,398,Terry Wells,Wynne,Arkansas,OT,76.0,306.0,3,0.8863,Wynne,AR,USA,35.224533,-90.7867798,5037.0
71858,4570040.0,HighSchool,2021,399,Byron Murphy II,DeSoto,Texas,DT,73.0,290.0,3,0.8863,DeSoto,TX,USA,32.6061241,-96.865612653687,48113.0
71923,4680604.0,HighSchool,2021,400,Jaydon Williams,South Oak Cliff,Arizona State,OLB,73.0,195.0,3,0.8863,Dallas,TX,USA,32.7762719,-96.7968559,48113.0
71855,unknown,HighSchool,2021,401,JJ Jones,Myrtle Beach,North Carolina,WR,75.0,195.0,3,0.8863,Myrtle Beach,SC,USA,33.6956461,-78.8900409,45051.0
71856,4432756.0,HighSchool,2021,402,Travali Price,North Lincoln,NC State,WDE,76.0,265.0,3,0.8863,Lincolnton,NC,USA,35.473745,-81.2545251,37109.0
71857,4597008.0,HighSchool,2021,403,Thomas Cole,San Luis Obispo,UCLA,OT,79.0,265.0,3,0.8863,San Luis Obispo,CA,USA,35.2827525,-120.6596156,6079.0
71859,4683215.0,HighSchool,2021,404,Danny Stutsman,Foundation Academy,Oklahoma,OLB,74.0,215.0,3,0.8862,Winter Garden,FL,USA,28.5656649,-81.5856742,12095.0
71861,4594984.0,HighSchool,2021,405,Tavierre Dunlap,Del Valle,Michigan,RB,72.0,196.0,3,0.8861,Del Valle,TX,USA,30.2091,-97.647,6037.0
71862,4683138.0,HighSchool,2021,406,Voi Tunuufi,East,Washington,DT,74.0,280.0,3,0.8858,Salt Lake City,UT,USA,40.7596198,-111.8867975,49035.0
71864,4599198.0,HighSchool,2021,407,Jared Wilson,West Forsyth,Georgia,OG,76.0,325.0,3,0.8856,Clemmons,NC,USA,36.0215258,-80.3819984,37067.0
71863,4594321.0,HighSchool,2021,408,Kaleb Elarms-Orr,Moreau Catholic,California,WDE,75.0,222.0,3,0.8856,Hayward,CA,USA,37.6688205,-122.0807964,6001.0
71874,4682652.0,HighSchool,2021,409,Devin Neal,Lawrence,Kansas,RB,71.0,208.0,3,0.8853,Lawrence,KS,USA,38.9719384,-95.2359496,20045.0
71866,4690781.0,HighSchool,2021,410,William Parker,Pearl-Cohn,Tennessee,OT,77.0,330.0,3,0.8851,Nashville,TN,USA,36.1622296,-86.7743531,47037.0
71867,4875593.0,HighSchool,2021,411,Jaylen Johnson,La Salle,Ohio State,S,73.0,200.0,3,0.8851,Cincinnati,OH,USA,39.1014537,-84.5124602,39061.0
71868,4596364.0,HighSchool,2021,412,Byron Turner Jr.,St. Augustine,Florida State,SDE,75.0,237.0,3,0.8851,New Orleans,LA,USA,29.9499323,-90.0701156,22071.0
71869,4682510.0,HighSchool,2021,413,Ryan Rodriguez,Columbus,Miami,OC,75.0,280.0,3,0.8851,Miami,FL,USA,25.7742658,-80.1936589,12086.0
71870,4680018.0,HighSchool,2021,414,Alton McCaskill,Oak Ridge,Houston,RB,73.0,200.0,3,0.8851,Conroe,TX,USA,30.3118769,-95.4560512,48339.0
71873,4682505.0,HighSchool,2021,415,De'Shawn Rucker,Amos P. Godby,Tennessee,S,71.0,184.0,3,0.8851,Tallahassee,FL,USA,30.4380832,-84.2809332,12073.0
71875,4599197.0,HighSchool,2021,416,Tristan Bounds,Choate Rosemary Hall,Michigan,OT,79.0,285.0,3,0.885,Wallingford,CT,USA,41.4570418,-72.8231552,9009.0
71947,4590298.0,HighSchool,2021,417,Remington Strickland,Fort Bend Christian Academy,Texas A&M,OC,76.0,292.0,3,0.885,Sugar Land,TX,USA,29.6196787,-95.6349463,48157.0
71877,unknown,HighSchool,2021,418,Duce Chestnut,Camden,Syracuse,CB,71.0,180.0,3,0.885,Camden,NJ,USA,39.9448402,-75.1198911,34007.0
71878,4668019.0,HighSchool,2021,419,Erik Olsen,Heritage,Colorado,TE,77.0,230.0,3,0.885,Littleton,CO,USA,39.613321,-105.0166498,8005.0
71895,4588300.0,HighSchool,2021,420,Kobe King,Cass Technical,Penn State,ILB,72.0,223.0,3,0.885,Detroit,MI,USA,42.3315509,-83.0466403,26163.0
71879,4589518.0,HighSchool,2021,421,Noah Josey,Brentwood Academy,Virginia,OG,77.0,280.0,3,0.885,Brentwood,TN,USA,36.0325687,-86.7825235,47187.0
71880,4612200.0,HighSchool,2021,422,Kyndrich Breedlove,Pearl-Cohn,Ole Miss,ATH,70.0,165.0,3,0.885,Nashville,TN,USA,36.1622296,-86.7743531,47037.0
71882,unknown,HighSchool,2021,423,Chris Murray,Hirschi,TCU,SDE,75.0,240.0,3,0.885,Wichita Falls,TX,USA,33.9137085,-98.4933873,48485.0
71883,unknown,HighSchool,2021,424,Damir Collins,Jefferson,Oregon State,APB,69.0,185.0,3,0.8843,Portland,OR,USA,45.5202471,-122.6741949,41051.0
75803,4687700.0,HighSchool,2021,425,Malachi Holt-Bennett,Fairfield Preparatory School,Indiana,WR,74.0,180.0,3,0.8843,Fairfield,AL,USA,33.4859402,-86.9119366,1073.0
71885,4683446.0,HighSchool,2021,426,Josh Moore,Marist School,UCLA,S,74.0,195.0,3,0.8843,Atlanta,GA,USA,33.7490987,-84.3901849,13121.0
71884,unknown,HighSchool,2021,426,Malachi Bennett,Fairfield Preparatory School,unknown,WR,74.0,180.0,3,0.8843,Fairfield,AL,USA,33.4859402,-86.9119366,1073.0
71886,4683417.0,HighSchool,2021,427,Miles Campbell,South Paulding,Tennessee,TE,75.0,238.0,3,0.8843,Douglasville,GA,USA,33.7514966,-84.7477136,13097.0
71887,4682984.0,HighSchool,2021,428,Tevin Williams,Stillwater,Baylor,CB,72.0,172.0,3,0.8842,Stillwater,OK,USA,36.1156306,-97.0585717,40119.0
71997,4602696.0,HighSchool,2021,429,Christian Burkhalter,Spanish Fort,UCLA,WDE,77.0,230.0,3,0.8842,Spanish Fort,AL,USA,30.6749127,-87.9152724,1003.0
71954,4684142.0,HighSchool,2021,430,Kaleb Edwards,Dacula,Georgia Tech,S,72.0,195.0,3,0.8842,Dacula,GA,USA,33.9887165,-83.8979573,13135.0
71888,unknown,HighSchool,2021,431,Bennett Pitcher,Deerfield Academy,unknown,OT,79.0,273.0,3,0.8839,Deerfield,MA,USA,42.5195925,-72.6103994,25011.0
71891,unknown,HighSchool,2021,432,Kyran Montgomery,Pike,Missouri,WDE,76.0,251.0,3,0.8838,Indianapolis,IN,USA,39.7683331,-86.1583502,18097.0
71797,unknown,HighSchool,2021,433,Jaraye Williams,Kennedy Catholic,Louisville,OLB,75.0,197.0,3,0.8837,Burien,WA,USA,47.469918,-122.3485274,53033.0
71890,4875981.0,HighSchool,2021,434,Geno VanDeMark,St Joseph Regional,Michigan State,OG,77.0,295.0,3,0.8837,Montvale,NJ,USA,41.0467635,-74.0229173,34003.0
71913,4683101.0,HighSchool,2021,435,Max Llewellyn,Urbandale,Iowa,SDE,77.0,230.0,3,0.8834,Urbandale,IA,USA,41.6274552,-93.7380624,19153.0
71892,4710322.0,HighSchool,2021,436,Deonte Anderson,Fort Meade,Mississippi State,WDE,75.0,225.0,3,0.8834,Fort Meade,FL,USA,27.7522526,-81.8017491,12105.0
71815,unknown,HighSchool,2021,437,David Abiara,Mansfield Legacy,Texas,SDE,76.0,248.0,3,0.8833,Mansfield,TX,USA,32.5631924,-97.1416768,48439.0
71893,4599375.0,HighSchool,2021,438,Matthew Wykoff,Magnolia,Texas A&M,OT,77.0,304.0,3,0.883,Magnolia,TX,USA,30.2093794,-95.7507815,48339.0
71968,4686693.0,HighSchool,2021,439,Kimo Makaneole,Niceville,LSU,OG,76.0,285.0,3,0.883,Niceville,FL,USA,30.5168639,-86.482172,12091.0
71894,4431597.0,HighSchool,2021,440,Roc Taylor,Oxford,Memphis,ATH,74.0,212.0,3,0.8829,Oxford,AL,USA,33.5853695,-85.91428175037092,1121.0
72198,4708079.0,HighSchool,2021,441,Dontae Balfour,Bradford,North Carolina,CB,74.0,170.0,3,0.8824,Starke,FL,USA,29.9443488,-82.1101137,12007.0
71896,4683139.0,HighSchool,2021,442,Ty Williams,Muskogee,Oklahoma State,S,73.0,186.0,3,0.8822,Muskogee,OK,USA,35.7478769,-95.3696909,40101.0
71897,unknown,HighSchool,2021,443,Christopher Thomas,Dunbar,Florida,DT,78.0,290.0,3,0.8817,Fort Myers,FL,USA,26.640628,-81.8723084,12071.0
71724,unknown,HighSchool,2021,444,Charles Montgomery,Armwood,unknown,ATH,70.0,185.0,3,0.8817,Valrico,FL,USA,27.9484265,-82.23621545220522,12057.0
71898,4431505.0,HighSchool,2021,445,Kobe Paysour,Gaffney,North Carolina,WR,73.0,175.0,3,0.8817,Gaffney,SC,USA,35.0717945,-81.6498195,45021.0
71899,4566153.0,HighSchool,2021,446,Blaine Green,Allen,Oklahoma State,WR,73.0,204.0,3,0.8817,Allen,TX,USA,33.1031744,-96.6705503,48085.0
71900,4432612.0,HighSchool,2021,447,Christian Veilleux,The Bullis School,Penn State,PRO,75.0,201.0,3,0.8817,Potomac,MD,USA,39.017936,-77.2094542,24031.0
71901,4431526.0,HighSchool,2021,448,Dametrious Crownover,Grandview,Texas A&M,TE,78.0,275.0,3,0.8817,Grandview,TX,USA,32.2666506,-97.1785429,48251.0
71902,4433974.0,HighSchool,2021,449,Rodney McGraw,Elkhart Central,Penn State,WDE,77.0,255.0,3,0.8817,Elkhart,IN,USA,41.6819935,-85.9766671,18039.0
71903,unknown,HighSchool,2021,450,Javonte Gardner,Jones,Jackson State,OT,77.0,290.0,3,0.8816,Orlando,FL,USA,28.5421109,-81.3790304,12095.0
71904,4569663.0,HighSchool,2021,451,Justin Johnson,Edwardsville,West Virginia,RB,71.0,190.0,3,0.8816,Edwardsville,IL,USA,38.8114364,-89.953157,17119.0
71740,unknown,HighSchool,2021,452,Quenton Barnes,Cane Ridge,unknown,WR,74.0,175.0,3,0.8815,Antioch,TN,USA,36.0806394,-83.7799037,47093.0
71940,4603086.0,HighSchool,2021,453,Andrew Wilson-Lamp,Washington,West Virginia,WR,75.0,175.0,3,0.8813,Massillon,OH,USA,40.7967244,-81.5215093,39151.0
71905,4612298.0,HighSchool,2021,454,Albert Regis,La Porte,Texas A&M,DT,73.0,300.0,3,0.881,La Porte,TX,USA,29.6657838,-95.0193729,48201.0
71906,4603085.0,HighSchool,2021,455,Jack Pugh,Hilliard Bradley,Wisconsin,TE,77.0,235.0,3,0.881,Hilliard,OH,USA,40.033814,-83.1596108,39049.0
71907,4684085.0,HighSchool,2021,456,Andrew Jones,John Ehret,Memphis,ILB,72.0,200.0,3,0.881,Marrero,LA,USA,29.8993723,-90.1003506,22051.0
71908,4602897.0,HighSchool,2021,457,Easton Mascarenas,Mission Viejo,Oregon State,ILB,72.0,215.0,3,0.881,Mission Viejo,CA,USA,33.5965685,-117.659405,6059.0
71988,4602016.0,HighSchool,2021,458,Anquin Barnes,Robert E. Lee,Alabama,DT,77.0,299.0,3,0.881,Montgomery,AL,USA,32.3669656,-86.3006485,1101.0
71941,4432755.0,HighSchool,2021,459,Andre Porter,Washington,Maryland,DT,75.0,300.0,3,0.881,Washington,PA,USA,40.17396,-80.2461714,42125.0
71910,4596601.0,HighSchool,2021,460,Dakota Mitchell,Winter Park,Florida,S,72.0,185.0,3,0.8809,Winter Park,FL,USA,26.13784445,-81.75399813758739,12021.0
71911,4594329.0,HighSchool,2021,461,Henry Lutovsky,Mount Pleasant,Nebraska,OG,78.0,320.0,3,0.8809,Mount Pleasant,IA,USA,40.966312,-91.5539956,19087.0
71909,4601280.0,HighSchool,2021,462,Andrew Jones,Reagan,Duke,OT,76.0,255.0,3,0.8807,Pfafftown,NC,USA,36.1526379,-80.3622753,37067.0
72009,4699354.0,HighSchool,2021,463,Harrison Wallace,Pike Road,Penn State,WR,73.0,180.0,3,0.8806,Pike Road,AL,USA,32.272931,-86.15018999518217,1101.0
71912,4683536.0,HighSchool,2021,464,JJ Henry,McKinney North,Ole Miss,WR,70.0,165.0,3,0.8804,McKinney,TX,USA,33.1976496,-96.6154471,48085.0
71961,4687707.0,HighSchool,2021,465,Matthew Langlois,Catholic Of Pointe Coupee,LSU,S,72.0,185.0,3,0.8801,New Roads,LA,USA,30.7015741,-91.4362242,22077.0
71914,4683818.0,HighSchool,2021,466,Deshun Murrell,Bibb County,UCLA,RB,71.0,190.0,3,0.8801,Centreville,AL,USA,32.9445682,-87.1386067,1007.0
71916,4598577.0,HighSchool,2021,467,Dorien Ford,Baldwin,Pittsburgh,DT,76.0,290.0,3,0.8797,Pittsburgh,PA,USA,40.4416941,-79.9900861,42003.0
71915,4683176.0,HighSchool,2021,468,Connor Heffernan,Georgetown,Baylor,OG,76.0,260.0,3,0.8797,Georgetown,TX,USA,30.671598,-97.65500660120436,48491.0
71919,4602695.0,HighSchool,2021,469,Trinity Bell,Albertville,Tennessee,ATH,79.0,260.0,3,0.8796,Albertville,AL,USA,34.2675937,-86.2088669,1095.0
71920,4431410.0,HighSchool,2021,470,Cooper Jones,Valparaiso,Indiana,SDE,78.0,245.0,3,0.8796,Valparaiso,IN,USA,41.4730948,-87.0611412,18127.0
71921,4433967.0,HighSchool,2021,471,Daylan Carnell,Ben Davis,Missouri,CB,73.0,195.0,3,0.8795,Indianapolis,IN,USA,39.7683331,-86.1583502,18097.0
71922,4587705.0,HighSchool,2021,472,Cam'Ron Valdez,Rockdale,Texas Tech,RB,70.0,190.0,3,0.8795,Rockdale,TX,USA,30.6549433,-97.0058245,48331.0
71924,4431540.0,HighSchool,2021,473,Bryan Sanborn,Lake Zurich,Wisconsin,ILB,74.0,210.0,3,0.8789,Lake Zurich,IL,USA,42.1969689,-88.0934108,17097.0
71925,4431575.0,HighSchool,2021,474,Cullen Montgomery,Episcopal,Oklahoma,OG,77.0,315.0,3,0.8789,Bellaire,TX,USA,29.7057858,-95.4588299,48201.0
72031,4700270.0,HighSchool,2021,475,Austin Uke,Parish Episcopal School,Stanford,OT,76.0,265.0,3,0.8789,Dallas,TX,USA,32.7762719,-96.7968559,48113.0
71928,4602984.0,HighSchool,2021,476,Diego Pounds,Millbrook,North Carolina,OT,78.0,305.0,3,0.8789,Raleigh,NC,USA,35.7803977,-78.6390989,37183.0
71926,4431646.0,HighSchool,2021,477,Keontez Lewis,East St. Louis,UCLA,WR,74.0,185.0,3,0.8788,East Saint Louis,IL,USA,38.6244952,-90.1509429,17163.0
72033,4602193.0,HighSchool,2021,478,Lyrik Rawls,Marshall,Oklahoma State,S,73.0,180.0,3,0.8788,Marshall,TX,USA,32.5447756,-94.3661004,48203.0
71927,4588194.0,HighSchool,2021,479,Dyson McCutcheon,Bishop Amat,Washington,CB,70.0,165.0,3,0.8788,La Puente,CA,USA,34.01979,-117.9503677,6037.0
71860,unknown,HighSchool,2021,480,Chase Mason,Viborg - 01,unknown,DUAL,76.0,212.0,3,0.8787,Viborg,SD,USA,43.170266,-97.081441,46125.0
71936,4432733.0,HighSchool,2021,481,Clay Millen,Mount Si,Nevada,PRO,75.0,188.0,3,0.8786,Snoqualmie,WA,USA,47.5289527,-121.8270932,53033.0
71938,4431510.0,HighSchool,2021,482,Tymir Brown,Jacksonville,North Carolina,ATH,71.0,169.0,3,0.8785,Jacksonville,NC,USA,34.7494749,-77.4208221,37133.0
71929,4596346.0,HighSchool,2021,483,Jordan Dingle,Bowling Green,Kentucky,TE,76.0,235.0,3,0.8784,Bowling Green,KY,USA,36.9903199,-86.4436018,21227.0
71930,4431608.0,HighSchool,2021,484,Landyn Watson,Hutto,TCU,WDE,75.0,235.0,3,0.8784,Hutto,TX,USA,30.5427638,-97.5468898,48491.0
71931,4432788.0,HighSchool,2021,485,Brody Wisecarver,DeSmet,Illinois,OG,76.0,317.0,3,0.8784,Saint Louis,MO,USA,38.6264178,-90.1998378,29510.0
71932,unknown,HighSchool,2021,486,Jaylin White,Dothan,unknown,RB,70.0,185.0,3,0.8784,Dothan,AL,USA,31.2237434,-85.3933906,1069.0
71881,4683002.0,HighSchool,2021,487,Khristian Zachary,Carrollton,Liberty,WDE,75.0,250.0,3,0.8784,Carrollton,GA,USA,33.5801103,-85.0766113,13045.0
71933,4431278.0,HighSchool,2021,488,Weston Franklin,Wayne County,Georgia Tech,OG,76.0,308.0,3,0.8784,Jesup,GA,USA,31.6074365,-81.8853924,13305.0
71934,unknown,HighSchool,2021,489,Victory Vaka,Westlake,unknown,DT,74.0,350.0,3,0.8784,Westlake Village,CA,USA,34.1460234,-118.8061794,6037.0
71935,4566198.0,HighSchool,2021,490,Lake McRee,Lake Travis,USC,TE,76.0,217.0,3,0.8784,Austin,TX,USA,30.2711286,-97.7436995,48453.0
71937,4431494.0,HighSchool,2021,491,Dameon Wilson,Kings Mountain,Missouri,ILB,73.0,210.0,3,0.8782,Kings Mountain,NC,USA,35.2450607,-81.3410516,37045.0
71939,4565552.0,HighSchool,2021,492,Deacon Hill,Santa Barbara,Wisconsin,PRO,75.0,230.0,3,0.878,Santa Barbara,CA,USA,34.4221319,-119.7026673,6083.0
71943,4431340.0,HighSchool,2021,493,Javion Hunt,Carl Albert,Arkansas,RB,72.0,205.0,3,0.8777,Oklahoma City,OK,USA,35.4729886,-97.5170536,40109.0
71944,4691878.0,HighSchool,2021,494,Cameron Ball,Tri-Cities,Arkansas,OT,77.0,300.0,3,0.8776,Atlanta,GA,USA,33.7490987,-84.3901849,13121.0
71945,4602927.0,HighSchool,2021,495,Mitch Leigber,Laguna Hills,Stanford,S,73.0,205.0,3,0.8776,Laguna Hills,CA,USA,33.5948758,-117.6882067,6059.0
71946,unknown,HighSchool,2021,496,Breon Pass,Reidsville,unknown,WR,72.0,175.0,3,0.8776,Reidsville,NC,USA,36.3548586,-79.6644748,37157.0
72056,4602189.0,HighSchool,2021,497,Terrell Tilmon,Mansfield Timberview,Oregon,WDE,76.0,210.0,3,0.8776,Arlington,TX,USA,32.701939,-97.105623790337,48439.0
71948,4683243.0,HighSchool,2021,498,Mitchell Evans,Wadsworth,Notre Dame,TE,79.0,240.0,3,0.8776,Wadsworth,OH,USA,41.0256101,-81.7298519,39103.0
71949,4698884.0,HighSchool,2021,499,Isaac Vaha,Pleasant Grove,Utah,TE,79.0,230.0,3,0.8776,Pleasant Grove,UT,USA,40.3641184,-111.73854,49049.0
71996,4603192.0,HighSchool,2021,500,Logan Diggs,Archbishop Rummel,Notre Dame,RB,72.0,195.0,3,0.8776,Metairie,LA,USA,30.001852,-90.1767149159888,22051.0
71950,4683262.0,HighSchool,2021,501,Tyler McLaurin,Bolingbrook,Michigan,OLB,74.0,210.0,3,0.8776,Bolingbrook,IL,USA,41.7003302,-88.0717708,17197.0
71951,4873615.0,HighSchool,2021,502,Victoine Brown,Grayson,Louisville,SDE,76.0,227.0,3,0.8776,Loganville,GA,USA,33.8389977,-83.9007382,13297.0
72060,4597253.0,HighSchool,2021,503,Isaiah Nwokobia,Skyline,SMU,S,72.0,191.0,3,0.8776,Dallas,TX,USA,32.7762719,-96.7968559,48113.0
71952,4668088.0,HighSchool,2021,504,Marlin Dean,IMG Academy,Georgia,DT,78.0,265.0,3,0.8776,Elberton,GA,USA,34.1112226,-82.8670839,13105.0
72066,4686569.0,HighSchool,2021,505,Shield Taylor,Alexandria,Stanford,TE,76.0,235.0,3,0.8776,Alexandria,LA,USA,31.311248,-92.4449087,27041.0
71955,4592833.0,HighSchool,2021,506,Cameron James,Simeon,Minnesota,OT,80.0,290.0,3,0.8768,Chicago,IL,USA,41.8755616,-87.6244212,17031.0
71956,4603101.0,HighSchool,2021,507,Rod Moore,Northmont,Michigan,S,71.0,180.0,3,0.8768,Clayton,OH,USA,39.8631101,-84.3605022,39113.0
71957,4683716.0,HighSchool,2021,508,Khalil Anderson,Riverwood,Pittsburgh,CB,71.0,175.0,3,0.8768,Atlanta,GA,USA,33.7490987,-84.3901849,13121.0
71958,4690476.0,HighSchool,2021,509,Noah Pulealii,Palma,UCLA,OG,75.0,312.0,3,0.8768,Salinas,CA,USA,36.6744117,-121.6550372,6053.0
71959,4586334.0,HighSchool,2021,510,Bryon Threats,Dublin Coffman,Cincinnati,ATH,70.0,190.0,3,0.8767,Dublin,OH,USA,40.0992294,-83.1140771,39049.0
71962,4602900.0,HighSchool,2021,511,Zakhari Spears,Loyola,Washington,CB,74.0,180.0,3,0.8767,Los Angeles,CA,USA,34.0536909,-118.2427666,6037.0
71963,4683318.0,HighSchool,2021,512,James Carnie,Norris,Nebraska,TE,77.0,220.0,3,0.8767,Firth,NE,USA,40.532789,-96.606415,31109.0
71964,4431626.0,HighSchool,2021,513,Charles Brantley,Venice,Michigan State,CB,72.0,160.0,3,0.8766,Venice,FL,USA,27.0999188,-82.4543597,12115.0
71966,4432736.0,HighSchool,2021,514,Colin Mobley,DeMatha Catholic,USC,SDE,76.0,260.0,3,0.8763,Hyattsville,MD,USA,38.9529442,-76.9408647,24033.0
71967,4589233.0,HighSchool,2021,515,Dylan Goffney,Bridgeland,SMU,WR,73.0,195.0,3,0.8763,Cypress,TX,USA,29.9691116,-95.6971686,48201.0
71993,unknown,HighSchool,2021,516,Keithron Lee,Rudder,Texas,WR,70.0,175.0,3,0.8763,Bryan,TX,USA,30.6743643,-96.3699632,48041.0
71969,4683489.0,HighSchool,2021,517,Saia Mapakaitolo,Red Mountain,Minnesota,OT,77.0,280.0,3,0.8763,Mesa,AZ,USA,33.4151117,-111.8314773,4013.0
71970,4683043.0,HighSchool,2021,518,Thomas Davis,Lowndes,Miami,ILB,72.0,235.0,3,0.8763,Valdosta,GA,USA,30.8327022,-83.2784851,13185.0
71972,4432669.0,HighSchool,2021,519,Joshua Burrell,Blythewood,Florida State,WR,74.0,212.0,3,0.8763,Blythewood,SC,USA,34.2187005,-80.98456918011235,45079.0
71973,4683102.0,HighSchool,2021,520,Kuao Peihopa,Kamehameha,Washington,DT,75.0,306.0,3,0.8762,Honolulu,HI,USA,21.304547,-157.8556764,15003.0
71974,4431632.0,HighSchool,2021,521,Caleb Coombs,St. John's,Marshall,WR,70.0,175.0,3,0.8762,Washington,DC,USA,38.8949855,-77.0365708,11001.0
71975,4572380.0,HighSchool,2021,522,Quincy Skinner Jr.,St. Thomas Aquinas,Vanderbilt,WR,73.0,175.0,3,0.8762,Fort Lauderdale,FL,USA,26.1223084,-80.1433786,12011.0
71982,4691556.0,HighSchool,2021,523,Enrique Cruz,Willowbrook,Syracuse,OT,77.0,252.0,3,0.8757,Villa Park,IL,USA,41.8891319,-87.9774854,17043.0
71976,4687178.0,HighSchool,2021,524,Tobechi Okoli,Lincoln College Prep,Auburn,SDE,77.0,250.0,3,0.8756,Kansas City,MO,USA,39.100105,-94.5781416,29095.0
71980,4587701.0,HighSchool,2021,525,Andrel Anthony,East Lansing,Michigan,WR,74.0,175.0,3,0.8755,East Lansing,MI,USA,42.7355416,-84.4852469,26065.0
71977,4587723.0,HighSchool,2021,526,Keuan Parker,Booker T. Washington,Arkansas,CB,71.0,173.0,3,0.8755,Tulsa,OK,USA,36.1556805,-95.9929113,40143.0
71978,4600604.0,HighSchool,2021,527,Jeffrey Davis Jr.,Kingswood-Oxford School,Penn State,CB,72.0,170.0,3,0.8755,West Hartford,CT,USA,41.7629122,-72.75664456297505,9003.0
72218,4683128.0,HighSchool,2021,528,Jack Dingle,Trinity,Cincinnati,OLB,76.0,205.0,3,0.8755,Louisville,KY,USA,38.2542376,-85.759407,21111.0
71979,4602895.0,HighSchool,2021,529,Makai Cope,Culver City,Utah,WR,74.0,190.0,3,0.8755,Culver City,CA,USA,34.0278787,-118.3888493,6037.0
71981,unknown,HighSchool,2021,530,Tyrese Johnson,KIPP Booker T. Washington,Memphis,WR,73.0,190.0,3,0.8755,New Orleans,LA,USA,29.9499323,-90.0701156,22071.0
71984,4873431.0,HighSchool,2021,531,Larry Smith,Oakleaf,Indiana,S,70.0,170.0,3,0.8749,Jacksonville,FL,USA,30.3321838,-81.655651,12031.0
71865,4431401.0,HighSchool,2021,532,Jordan Jenkins,Lindale,Baylor,RB,73.0,202.0,3,0.8749,Lindale,TX,USA,32.5156971,-95.4093998,48423.0
71985,4568723.0,HighSchool,2021,533,Tyler Johnson,Killian,Miami,OLB,74.0,200.0,3,0.8748,Miami,FL,USA,25.7742658,-80.1936589,12086.0
71986,4594337.0,HighSchool,2021,534,Liam Clifford,St. Xavier,Penn State,WR,73.0,195.0,3,0.8748,Cincinnati,OH,USA,39.1014537,-84.5124602,39061.0
72036,unknown,HighSchool,2021,535,Raider Damuni,Timpview,BYU,ATH,74.0,190.0,3,0.8748,Provo,UT,USA,40.2338438,-111.6585337,49049.0
72113,4684525.0,HighSchool,2021,536,Eli Sanders,Chandler,Iowa State,ATH,72.0,190.0,3,0.8746,Chandler,AZ,USA,33.3062223,-111.8413317,4013.0
71989,unknown,HighSchool,2021,537,Phillip O'Brien Jr.,Deerfield Beach,Pittsburgh,S,73.0,190.0,3,0.8743,Deerfield Beach,FL,USA,26.318342,-80.0996306,12011.0
71990,4431516.0,HighSchool,2021,538,Brandon Buckhaulter,Hartfield Academy,Ole Miss,WR,75.0,220.0,3,0.8743,Flowood,MS,USA,32.3095903,-90.1389757,28121.0
71991,4431258.0,HighSchool,2021,539,Gennings Dunker,Lena-Winslow,Iowa,OG,77.0,290.0,3,0.8743,Lena,IL,USA,42.3804975,-89.8220784,17177.0
71992,4598576.0,HighSchool,2021,540,Nick Dimitris,Sierra Vista,UNLV,WDE,76.0,235.0,3,0.8742,Baldwin Park,CA,USA,34.0854739,-117.9611761,6037.0
71994,4568075.0,HighSchool,2021,541,Juan Davis,Everman,Texas,ATH,76.0,217.0,3,0.8742,Fort Worth,TX,USA,32.753177,-97.3327459,48439.0
71995,4683092.0,HighSchool,2021,542,Cole Carson,Rivercrest,Arkansas,OT,77.0,285.0,3,0.8742,Bogata,TX,USA,33.4711597,-95.2144967,48387.0
72046,4602021.0,HighSchool,2021,543,Ru'Quan Buckley,Godwin Heights Senior,Nebraska,SDE,78.0,280.0,3,0.8742,Three Rivers,MI,USA,41.9442722,-85.6346222,26149.0
72002,4431647.0,HighSchool,2021,544,Chauncey Magwood,Lee County,Kentucky,WR,72.0,187.0,3,0.8742,Leesburg,GA,USA,31.7324556,-84.1711966,13177.0
71998,unknown,HighSchool,2021,545,Robert Regan,Orange Lutheran,Arizona State,CB,72.0,186.0,3,0.8742,Orange,CA,USA,33.7872568,-117.8503088,6059.0
71999,4596663.0,HighSchool,2021,546,Jalen Cheek,Winslow Twp,Boston College,CB,73.0,187.0,3,0.8742,Atco,NJ,USA,39.769838,-74.8873855,34007.0
72003,unknown,HighSchool,2021,546,Corey Yeoman,Atlantic City,unknown,unknown,74.0,214.0,3,0.8739,Richland,NJ,USA,39.4917828,-74.8707243,34001.0
72001,4576713.0,HighSchool,2021,547,Bralyn Oliver,William Amos Hough,Louisville,S,74.0,195.0,3,0.8742,Cornelius,NC,USA,35.4817982,-80.8589501,37119.0
72052,4683119.0,HighSchool,2021,548,Tyler Moore,Johnston,Iowa State,TE,77.0,245.0,3,0.8739,Johnston,IA,USA,41.6731523,-93.6973395,19153.0
75804,unknown,HighSchool,2021,549,Corey Yeoman,Atlantic City,unknown,unknown,74.0,214.0,3,0.8739,Atlantic City,NJ,USA,39.3642852,-74.4229351,34001.0
75817,unknown,HighSchool,2021,549,Corey Yeoman,Atlantic City,unknown,unknown,74.0,214.0,3,0.8739,Atlantic City,NJ,USA,39.3642852,-74.4229351,34001.0
75281,unknown,HighSchool,2021,549,Corey Yeoman,Atlantic City,unknown,unknown,74.0,214.0,3,0.8739,Richland,NJ,USA,39.4917828,-74.8707243,34001.0
72004,4697393.0,HighSchool,2021,550,Chase Hattley,Panther Creek,NC State,S,75.0,205.0,3,0.8736,Cary,NC,USA,35.7883046,-78.7811964,37183.0
72061,5081785.0,HighSchool,2021,551,Jackie Marshall,East St. John,Baylor,ILB,73.0,230.0,3,0.8735,Reserve,LA,USA,30.0538131,-90.5517534,20013.0
72006,4683118.0,HighSchool,2021,552,Ja'Den McBurrows,St. Thomas Aquinas,Michigan,CB,70.0,165.0,3,0.8734,Fort Lauderdale,FL,USA,26.1223084,-80.1433786,12011.0
72007,4602191.0,HighSchool,2021,553,Mark Wilson,Clear Lake,Houston,S,72.0,170.0,3,0.8734,Houston,TX,USA,29.7589382,-95.3676974,48201.0
72008,4698179.0,HighSchool,2021,554,River Helms,West Limestone,Western Kentucky,TE,76.0,225.0,3,0.8734,Lester,AL,USA,34.9906391,-87.1533469,1083.0
72010,unknown,HighSchool,2021,555,Ayo Adebogun,Homestead,Wisconsin,WDE,75.0,215.0,3,0.8729,Thiensville,WI,USA,43.2375067,-87.9787001,55089.0
72011,4683096.0,HighSchool,2021,556,Caden Fordham,The Bolles School,NC State,OLB,74.0,220.0,3,0.8727,Ponte Vedra Beach,FL,USA,30.2396865,-81.3856384,12109.0
72304,4597310.0,HighSchool,2021,557,Austin Barber,Trinity Christian Academy,Florida,OT,79.0,300.0,3,0.8727,Jacksonville,FL,USA,30.3321838,-81.655651,12031.0
72012,4683920.0,HighSchool,2021,558,Isaiah Newcombe,Casteel,UCLA,ATH,73.0,185.0,3,0.8727,Queen Creek,AZ,USA,33.2483858,-111.6341585,4013.0
72013,unknown,HighSchool,2021,559,Nick Martin,Pleasant Grove,Oklahoma State,ATH,72.0,195.0,3,0.8727,Texarkana,TX,USA,33.44628645,-94.07638067493534,48037.0
72016,4431152.0,HighSchool,2021,559,Jackson Acker,Verona Area,Wisconsin,RB,73.0,210.0,3,0.8722,Verona,WI,USA,41.215285,-88.50465218777931,17063.0
72014,unknown,HighSchool,2021,560,Nate Bruce,Harrisburg,Penn State,OG,76.0,320.0,3,0.8727,Harrisburg,PA,USA,40.2663107,-76.8861122,42043.0
72015,4683717.0,HighSchool,2021,561,Ryan Barnes,Quince Orchard,Notre Dame,CB,74.0,185.0,3,0.8722,Gaithersburg,MD,USA,39.1434406,-77.2013705,24031.0
75282,4431152.0,HighSchool,2021,562,Jackson Acker,Verona Area,Wisconsin,ATH,73.0,210.0,3,0.8722,Verona,WI,USA,41.215285,-88.50465218777931,17063.0
72017,4680016.0,HighSchool,2021,563,Cameron Bonner,St. Thomas,Baylor,WR,71.0,173.0,3,0.8722,Houston,TX,USA,29.7589382,-95.3676974,48201.0
71918,4685893.0,HighSchool,2021,564,Caleb Johnson,Greenville,North Texas,CB,70.0,170.0,3,0.8722,Greenville,TX,USA,33.1384488,-96.1108066,48231.0
72018,unknown,HighSchool,2021,565,Jacobi Moore,Harrison Central,Mississippi State,WR,74.0,200.0,3,0.8722,Gulfport,MS,USA,30.3674198,-89.0928155,28047.0
72019,4684421.0,HighSchool,2021,566,Simeon Price,West Florida Tech,Mississippi State,ATH,72.0,204.0,3,0.8722,Pensacola,FL,USA,30.421309,-87.2169149,12033.0
72020,4432726.0,HighSchool,2021,567,Zeiqui Lawton,South Charleston,Cincinnati,SDE,75.0,240.0,3,0.8722,Charleston,WV,USA,38.3505995,-81.6332812,54039.0
72021,4686218.0,HighSchool,2021,568,Chance Tucker,Crespi,Notre Dame,CB,73.0,180.0,3,0.8721,Encino,CA,USA,34.1591324,-118.5016166,6037.0
72022,4431605.0,HighSchool,2021,569,Justin Walters,Bolingbrook,Notre Dame,S,74.0,185.0,3,0.8721,Bolingbrook,IL,USA,41.7003302,-88.0717708,17197.0
72023,unknown,HighSchool,2021,570,Loyal Crawford,Memorial,Wisconsin,RB,72.0,190.0,3,0.8721,Eau Claire,WI,USA,44.811349,-91.4984941,55035.0
72024,4596010.0,HighSchool,2021,571,Lemeke Brockington,Colquitt County,Minnesota,WR,72.0,195.0,3,0.8721,Moultrie,GA,USA,31.179998,-83.7887928,13071.0
72025,4568722.0,HighSchool,2021,572,Jaden Harrell,Urbandale,Iowa,ILB,74.0,215.0,3,0.8721,Urbandale,IA,USA,41.6274552,-93.7380624,19153.0
72026,4586314.0,HighSchool,2021,573,Bryce Stephens,John Marshall,Arkansas,WR,72.0,170.0,3,0.8721,Oklahoma City,OK,USA,35.4729886,-97.5170536,40109.0
72027,4709392.0,HighSchool,2021,574,Anthony Tyus III,Portage Northern,Northwestern,RB,73.0,207.0,3,0.872,Portage,MI,USA,42.2011538,-85.5800022,26077.0
71786,4431211.0,HighSchool,2021,575,Savion Collins,Miami Palmetto,Florida International,DT,76.0,290.0,3,0.8717,Miami,FL,USA,25.7742658,-80.1936589,12086.0
72028,4606193.0,HighSchool,2021,576,Bryson Estes,Eagle's Landing Christian,Florida State,OC,75.0,291.0,3,0.8717,McDonough,GA,USA,33.4473361,-84.1468616,13151.0
72038,4602946.0,HighSchool,2021,577,Jabril McNeill,Sanderson,Oregon,OLB,76.0,225.0,3,0.8716,Raleigh,NC,USA,35.7803977,-78.6390989,37183.0
72030,4700139.0,HighSchool,2021,578,Jacob Schuster,Tumwater,Minnesota,DT,74.0,300.0,3,0.8715,Olympia,WA,USA,47.0451022,-122.8950075,53067.0
72151,4709718.0,HighSchool,2021,579,Jayden Williams,Conway,Ole Miss,OT,77.0,268.0,3,0.8715,Conway,AR,USA,35.0886963,-92.4421011,5045.0
72035,4683961.0,HighSchool,2021,580,Jayden Johnson,Cedartown,Arkansas,ATH,74.0,200.0,3,0.8714,Cedartown,GA,USA,34.0124425,-85.2559398,13233.0
72032,4602896.0,HighSchool,2021,581,Kaleb Higgins,Folsom,California,CB,74.0,196.0,3,0.8714,Folsom,CA,USA,38.6779591,-121.1760583,6067.0
72034,4597249.0,HighSchool,2021,582,Devin Aupiu,Pacifica,Notre Dame,OLB,77.0,220.0,3,0.8714,Oxnard,CA,USA,34.1976308,-119.1803818,6111.0
72037,4592834.0,HighSchool,2021,583,Will Schweitzer,Los Gatos,Notre Dame,OLB,76.0,220.0,3,0.8713,Los Gatos,CA,USA,37.226611,-121.9746797,6085.0
72040,4602648.0,HighSchool,2021,583,Kevin Knowles,McArthur,Florida State,CB,70.0,168.0,3,0.871,Hollywood,FL,USA,26.0112014,-80.1494901,12011.0
72039,4682644.0,HighSchool,2021,584,Jordan Thompson,Parsippany Hills,Rutgers,ATH,75.0,225.0,3,0.8713,Morris Plains,NJ,USA,40.8364845,-74.47818854051508,34027.0
75283,4602648.0,HighSchool,2021,585,Kevin Knowles II,McArthur,Florida State,CB,70.0,168.0,3,0.871,Hollywood,FL,USA,26.0112014,-80.1494901,12011.0
71965,4431418.0,HighSchool,2021,586,Ty Keyes,Taylorsville,Southern Mississippi,PRO,74.0,205.0,3,0.871,Taylorsville,MS,USA,31.8296038,-89.4281208,28129.0
72041,4431328.0,HighSchool,2021,587,Rodney Hammond,B. T. Washington,Pittsburgh,ATH,70.0,170.0,3,0.871,Norfolk,VA,USA,36.8462923,-76.2929252,51710.0
72042,unknown,HighSchool,2021,588,Alonzo Fontenette,Oaks Christian,unknown,WR,75.0,175.0,3,0.871,Westlake Village,CA,USA,34.1460234,-118.8061794,6037.0
72043,4431336.0,HighSchool,2021,589,Jack Hollifield,Shelby,Virginia Tech,ILB,75.0,225.0,3,0.871,Shelby,NC,USA,35.2919489,-81.5402112,37045.0
72044,4432723.0,HighSchool,2021,590,A.J. Kirk,Archbishop Hoban,Michigan State,S,72.0,200.0,3,0.871,Columbus,OH,USA,39.9622601,-83.0007065,39049.0
72045,4602192.0,HighSchool,2021,591,Landen King,Atascocita,Auburn,TE,77.0,220.0,3,0.8709,Humble,TX,USA,29.9988312,-95.2621553,48201.0
72047,4592530.0,HighSchool,2021,592,Devon Williams,Dublin Coffman,Minnesota,OLB,73.0,215.0,3,0.8709,Dublin,OH,USA,40.0992294,-83.1140771,39049.0
72131,4592569.0,HighSchool,2021,593,Arden Walker,Cherry Creek,Missouri,SDE,76.0,240.0,3,0.8709,Englewood,CO,USA,39.6482059,-104.9879641,8005.0
72048,4705623.0,HighSchool,2021,594,Kahanu Kia,Punahou,Notre Dame,OLB,74.0,220.0,3,0.8709,Honolulu,HI,USA,21.304547,-157.8556764,15003.0
72049,4431338.0,HighSchool,2021,595,Ahmari Huggins-Bruce,Dillon,Louisville,WR,70.0,163.0,3,0.8709,Dillon,SC,USA,34.4165391,-79.3713948,45033.0
72051,4677280.0,HighSchool,2021,596,Julian Gray,Hopewell,NC State,WR,70.0,174.0,3,0.8706,Huntersville,NC,USA,35.410845,-80.8429094,37119.0
72053,4875276.0,HighSchool,2021,597,Bastian Swinney,Edina,California,OG,78.0,275.0,3,0.8706,Minneapolis,MN,USA,44.9772995,-93.2654692,27053.0
72054,4602676.0,HighSchool,2021,598,Tyreek Chappell,Northeast,Texas A&M,CB,71.0,170.0,3,0.8702,Philadelphia,PA,USA,39.9527237,-75.1635262,42101.0
72055,4631068.0,HighSchool,2021,599,Carnell Davis,Eau Gallie,Rutgers,WR,73.0,170.0,3,0.8702,Melbourne,FL,USA,28.0836269,-80.6081089,12009.0
72057,4432659.0,HighSchool,2021,600,Noah Avinger,Servite,San Diego State,CB,71.0,165.0,3,0.8702,Anaheim,CA,USA,33.8347516,-117.911732,6059.0
72058,4431663.0,HighSchool,2021,601,Jackson West,Huntsville,Florida State,TE,76.0,231.0,3,0.8702,Huntsville,AL,USA,34.729847,-86.5859011,1089.0
72059,4431556.0,HighSchool,2021,602,Cam Jeffery,American Christian Academy,Arkansas State,ATH,72.0,195.0,3,0.8702,Tuscaloosa,AL,USA,33.2095614,-87.5675258,1125.0
72062,4698882.0,HighSchool,2021,603,Christian Charles,Chestatee,Tennessee,ATH,73.0,185.0,3,0.8702,Gainesville,GA,USA,34.2978794,-83.8240663,13139.0
72063,4431664.0,HighSchool,2021,604,Dante Trader Jr.,McDonogh School,Maryland,CB,72.0,180.0,3,0.8702,Owings Mills,MD,USA,39.4010753,-76.796299,24005.0
72064,4683553.0,HighSchool,2021,605,Austin Booker,Center Grove,Minnesota,SDE,78.0,240.0,3,0.8702,Greenwood,IN,USA,39.6136578,-86.1066526,18081.0
72065,4683263.0,HighSchool,2021,606,Heinrich Haarberg,Kearney Catholic,Nebraska,DUAL,77.0,185.0,3,0.8702,Kearney,NE,USA,40.699478,-99.081858,31019.0
72067,4688754.0,HighSchool,2021,607,Sirad Bryant,Crisp County,Georgia Tech,S,73.0,184.0,3,0.8702,Cordele,GA,USA,31.9635074,-83.7823938,13081.0
72068,4596542.0,HighSchool,2021,608,Pat Coogan,Marist,Notre Dame,OG,77.0,290.0,3,0.8701,Chicago,IL,USA,41.8755616,-87.6244212,17031.0
72069,4683154.0,HighSchool,2021,609,Mikai Gbayor,Irvington,Nebraska,ILB,74.0,220.0,3,0.8701,Irvington,NJ,USA,40.7323235,-74.2348684,34013.0
72386,4586333.0,HighSchool,2021,610,Mekhi Wingo,DeSmet,Missouri,DT,72.0,280.0,3,0.8701,Saint Louis,MO,USA,38.6264178,-90.1998378,29510.0
72070,unknown,HighSchool,2021,611,John Henry Daley,Lone Peak,BYU,ATH,76.0,225.0,3,0.8701,American Fork,UT,USA,40.3768954,-111.7957645,49049.0
72297,4594319.0,HighSchool,2021,612,Brady Boyd,Southlake Carroll,Minnesota,WR,73.0,185.0,3,0.8701,Southlake,TX,USA,32.9412363,-97.1341783,48439.0
72071,4431628.0,HighSchool,2021,613,Demetrius Cannon,Trinity Catholic,Louisville,WR,75.0,205.0,3,0.87,Saint Louis,MO,USA,38.6264178,-90.1998378,29510.0
72128,4599365.0,HighSchool,2021,614,Tyler Maro,Assumption,Iowa State,OT,79.0,260.0,3,0.87,Davenport,IA,USA,41.5236436,-90.5776368,19163.0
72072,4596710.0,HighSchool,2021,615,Joshua Robinson,Douglas County,Georgia Tech,WDE,76.0,235.0,3,0.87,Douglasville,GA,USA,33.7514966,-84.7477136,13097.0
72073,4587704.0,HighSchool,2021,616,Jaden Slocum,Alpharetta,Stanford,S,74.0,181.0,3,0.87,Alpharetta,GA,USA,34.0709576,-84.2747329,13121.0
71960,unknown,HighSchool,2021,617,Armond Scott,Euclid,unknown,WR,75.0,200.0,3,0.87,Euclid,OH,USA,41.5931049,-81.5267873,39035.0
72074,4432713.0,HighSchool,2021,618,Anthony Hundley,IMG Academy,UCF,DT,75.0,270.0,3,0.8696,Bradenton,FL,USA,27.4989278,-82.5748194,12081.0
72075,unknown,HighSchool,2021,619,ZionAngelo Shockley,St. Frances Academy,Maryland,WDE,76.0,230.0,3,0.8696,Baltimore,MD,USA,39.2908816,-76.610759,24510.0
72215,4602017.0,HighSchool,2021,620,Martez Thrower,Wilcox County,Kentucky,OLB,73.0,220.0,3,0.8696,Rochelle,GA,USA,31.9510105,-83.4562744,13315.0
72076,4602937.0,HighSchool,2021,621,Colten Gauthier,Hebron Christian Academy,South Carolina,PRO,75.0,214.0,3,0.8695,Dacula,GA,USA,33.9887165,-83.8979573,13135.0
72077,4602944.0,HighSchool,2021,622,Colby Smith,Rockingham County,Auburn,OT,79.0,315.0,3,0.8694,Reidsville,NC,USA,36.3548586,-79.6644748,37157.0
72138,unknown,HighSchool,2021,623,Juwon Gaston,Carver,Auburn,S,71.0,187.0,3,0.8694,Montgomery,AL,USA,32.3669656,-86.3006485,1101.0
72078,4612850.0,HighSchool,2021,624,Robert Jackson,Archbishop Wood,Cincinnati,DT,77.0,265.0,3,0.8693,Warminster,PA,USA,40.2067751,-75.0996159,42017.0
72152,4668000.0,HighSchool,2021,625,Cisco Caston,Weatherford,Baylor,S,74.0,195.0,3,0.8689,Weatherford,TX,USA,32.7589648,-97.7970748,48367.0
72079,4691688.0,HighSchool,2021,626,Robbie Ouzts,Rock Hill,Alabama,TE,76.0,240.0,3,0.8689,Rock Hill,SC,USA,34.9248667,-81.0250784,45091.0
72080,4594985.0,HighSchool,2021,627,Jason Onye,Bishop Hendricken,Notre Dame,WDE,77.0,260.0,3,0.8689,Warwick,RI,USA,41.7002024,-71.4161108,44003.0
72229,4682638.0,HighSchool,2021,628,J'Marion Gooch,Gallatin Senior,Missouri,OT,79.0,358.0,3,0.8689,Gallatin,TN,USA,36.3883031,-86.4475898,47165.0
72081,4431159.0,HighSchool,2021,629,E'maurion Banks,Rider,Texas Tech,SDE,76.0,260.0,3,0.8689,Wichita Falls,TX,USA,33.9137085,-98.4933873,48485.0
72082,4682508.0,HighSchool,2021,630,Garner Langlo,Trinity Catholic,Auburn,OG,79.0,270.0,3,0.8688,Ocala,FL,USA,29.1871986,-82.1400923,12083.0
72083,4431633.0,HighSchool,2021,631,Will Crowder,Gardendale,West Virginia,PRO,74.0,195.0,3,0.8688,Gardendale,AL,USA,33.6601033,-86.8127702,1073.0
72084,unknown,HighSchool,2021,632,Zemarion Harrell,Salem,Coastal Carolina,OLB,74.0,220.0,3,0.8688,Virginia Beach,VA,USA,36.8529841,-75.9774183,51810.0
72085,4682788.0,HighSchool,2021,633,Ryan Keeler,Nazareth Academy,Rutgers,SDE,77.0,250.0,3,0.8688,Chicago,IL,USA,41.8755616,-87.6244212,17031.0
72086,4588298.0,HighSchool,2021,634,Jameson Geers,Providence Catholic,Minnesota,TE,78.0,250.0,3,0.8688,New Lenox,IL,USA,41.5119761,-87.9656098,17197.0
72087,unknown,HighSchool,2021,635,Terrence Rankl,Washington,Pittsburgh,OT,78.0,280.0,3,0.8688,Massillon,OH,USA,40.7967244,-81.5215093,39151.0
72089,4607404.0,HighSchool,2021,636,Davonte Pritchard,Gardner Edgerton,Kansas State,ATH,73.0,200.0,3,0.8688,Gardner,KS,USA,38.8109254,-94.9272958,20091.0
72090,4603746.0,HighSchool,2021,637,Malik Rutherford,Champagnat Catholic - Hialeah,Georgia Tech,WR,69.0,165.0,3,0.8688,Hialeah,FL,USA,25.8575963,-80.2781057,12086.0
72091,4688930.0,HighSchool,2021,638,Javon Bullard,Baldwin,Georgia,CB,72.0,183.0,3,0.8688,Milledgeville,GA,USA,33.0801429,-83.2320991,13009.0
72092,unknown,HighSchool,2021,639,Malik Newton,Lake Taylor,Pittsburgh,RB,71.0,223.0,3,0.8688,Norfolk,VA,USA,36.8462923,-76.2929252,51710.0
72093,4682503.0,HighSchool,2021,640,Ricardo Hallman,TRU Prep Academy,Wisconsin,CB,72.0,183.0,3,0.8687,Miami Gardens,FL,USA,25.9423108,-80.23976495072381,12086.0
72094,4683291.0,HighSchool,2021,641,Joey Labas,Brecksville-Broadview Heights,Iowa,DUAL,76.0,190.0,3,0.8685,Broadview Heights,OH,USA,41.3139426,-81.6851271,39035.0
71872,unknown,HighSchool,2021,642,Zamon Ross,Schley County,Jacksonville State,S,73.0,200.0,3,0.8683,Ellaville,GA,USA,32.2382139,-84.3090798,13249.0
72095,4678007.0,HighSchool,2021,643,Elijah Bean,Summer Creek,Baylor,WR,77.0,185.0,3,0.8682,Humble,TX,USA,29.9988312,-95.2621553,48201.0
72097,4700529.0,HighSchool,2021,644,Marvin Covington,Lake Ridge,TCU,CB,71.0,180.0,3,0.8682,Mansfield,TX,USA,32.5631924,-97.1416768,48439.0
72098,4602928.0,HighSchool,2021,645,Ezavier Staples,Millikan,UCLA,WR,74.0,182.0,3,0.8681,Long Beach,CA,USA,33.7690164,-118.1916048,6037.0
72099,4596604.0,HighSchool,2021,646,Griffin Liddle,Bettendorf,Iowa,DT,75.0,270.0,3,0.8681,Bettendorf,IA,USA,41.5252761,-90.5096386,19163.0
72100,4684069.0,HighSchool,2021,647,Maurice Heims,Santa Margarita Catholic,Washington,WDE,77.0,235.0,3,0.8681,Santa Margarita,CA,USA,35.3899734,-120.609057,6079.0
72101,4682745.0,HighSchool,2021,648,Jaylen Wright,Southern,Tennessee,RB,71.0,187.0,3,0.868,Durham,NC,USA,35.996653,-78.9018053,37063.0
72102,4602788.0,HighSchool,2021,649,Jackson Meeks,Central,Georgia,WR,74.0,190.0,3,0.868,Phenix City,AL,USA,32.4709761,-85.0007653,1113.0
72321,4587724.0,HighSchool,2021,650,West Weeks,Oconee County,Virginia,ATH,75.0,215.0,3,0.868,Watkinsville,GA,USA,33.8628959,-83.4087709,13219.0
72103,unknown,HighSchool,2021,651,Kanarius Johnson,Laurel,unknown,WR,74.0,190.0,3,0.868,Laurel,MS,USA,31.74096,-89.13382003619111,28067.0
72104,4600418.0,HighSchool,2021,652,Kajiya Hollawayne,San Jacinto,UCLA,DUAL,75.0,206.0,3,0.8676,San Jacinto,CA,USA,33.7839664,-116.9589086,6065.0
71942,unknown,HighSchool,2021,653,Trenton Adkins,Ridgeview,Toledo,ATH,73.0,195.0,3,0.8676,Clintwood,VA,USA,37.1501067,-82.4559846,51051.0
72105,4592534.0,HighSchool,2021,654,Jordyn Williams,Trinity Christian School,Indiana,WR,73.0,182.0,3,0.8676,Cedar Hill,TX,USA,32.5888072,-96.9553675,48113.0
72106,4611993.0,HighSchool,2021,655,Joshua Farmer,Gadsden County,Florida State,SDE,75.0,250.0,3,0.8676,Apalachicola,FL,USA,29.7255084,-84.9827725,12037.0
71983,unknown,HighSchool,2021,656,Tyler Morehead,Clinch County,unknown,ATH,71.0,185.0,3,0.8676,Homerville,GA,USA,31.0365983,-82.7470849,13065.0
72107,unknown,HighSchool,2021,657,Jai Jones,South Oak Cliff,Boise State,ILB,70.0,230.0,3,0.8675,Dallas,TX,USA,32.7762719,-96.7968559,48113.0
72108,4431475.0,HighSchool,2021,658,Latrell Neville,Hightower,Nebraska,WR,75.0,195.0,3,0.8675,Missouri City,TX,USA,29.6185669,-95.5377215,48157.0
72109,4686728.0,HighSchool,2021,659,Gunnar Helm,Cherry Creek,Texas,TE,77.0,225.0,3,0.8674,Englewood,CO,USA,39.6482059,-104.9879641,8005.0
72110,4699678.0,HighSchool,2021,660,Khalil Dinkins,North Allegheny,Penn State,TE,75.0,220.0,3,0.8674,Wexford,PA,USA,40.6264561,-80.055891,42003.0
72177,4612082.0,HighSchool,2021,661,Logan Purcell,Annandale,Minnesota,OT,79.0,260.0,3,0.8673,Annandale,MN,USA,45.2627428,-94.1244271,27171.0
72111,4682852.0,HighSchool,2021,662,Ethan Boyd,East Lansing,Michigan State,OT,79.0,285.0,3,0.8673,East Lansing,MI,USA,42.7355416,-84.4852469,26065.0
72112,4689528.0,HighSchool,2021,663,Koby Bretz,Westside,Nebraska,S,74.0,185.0,3,0.8671,Omaha,NE,USA,41.2587459,-95.9383758,31055.0
72114,4431327.0,HighSchool,2021,664,Kamonte Grimes,Palmetto Ridge,Nebraska,ATH,74.0,205.0,3,0.8669,Naples,FL,USA,26.1421976,-81.7942944,12021.0
72115,4695860.0,HighSchool,2021,665,Je'lin Samuels,Sam Rayburn,SMU,WDE,79.0,225.0,3,0.8669,Pasadena,TX,USA,29.6910625,-95.2091006,48201.0
72116,4597311.0,HighSchool,2021,666,Trey Reynolds,Queen Creek,Utah,ILB,74.0,235.0,3,0.8668,Queen Creek,AZ,USA,33.2483858,-111.6341585,4013.0
72117,4684527.0,HighSchool,2021,667,T.J. Sanders,Marion,South Carolina,DT,77.0,275.0,3,0.8668,Marion,SC,USA,40.5583739,-85.6591442,18053.0
72118,4683246.0,HighSchool,2021,668,Hugh Laughlin,Athens Academy,Virginia,OT,78.0,285.0,3,0.8668,Athens,GA,USA,33.9597677,-83.376398,13059.0
72126,unknown,HighSchool,2021,669,Ian Mathews,Pacelli,Auburn,DT,77.0,290.0,3,0.8668,Columbus,GA,USA,32.4609764,-84.9877094,13215.0
72120,4676004.0,HighSchool,2021,670,Cole Bishop,Starrs Mill,Utah,OLB,75.0,200.0,3,0.8668,Fayetteville,GA,USA,33.4487257,-84.4549262,13113.0
72121,4602898.0,HighSchool,2021,671,Chayden Peery,Sierra Canyon,Georgia Tech,PRO,75.0,215.0,3,0.8668,Chatsworth,CA,USA,34.2595715,-118.6023247,6037.0
72122,4877651.0,HighSchool,2021,672,Barylre Davenport,Chickasaw,Central Arkansas,WDE,76.0,224.0,3,0.8668,Chickasaw,AL,USA,30.7637991,-88.0747222,1097.0
72123,4683436.0,HighSchool,2021,673,Jeremiah Pittman,St. Viator,Iowa,DT,74.0,255.0,3,0.8668,Arlington Heights,IL,USA,42.0811563,-87.9802164,17031.0
72124,4596995.0,HighSchool,2021,674,Jeffrey Bowie,West Branch,Iowa,SDE,77.0,245.0,3,0.8668,West Branch,IA,USA,41.6720735,-91.3459735,19031.0
72000,unknown,HighSchool,2021,675,De'Kelvion Beamon,Huntington,Oklahoma State,S,73.0,180.0,3,0.8668,Shreveport,LA,USA,32.5221828,-93.7651944,22017.0
72277,4875088.0,HighSchool,2021,676,Devin Lee,Ola,Vanderbilt,DT,75.0,285.0,3,0.8668,McDonough,GA,USA,33.4473361,-84.1468616,13151.0
72127,4678012.0,HighSchool,2021,677,Jimmy Wyrick,South Oak Cliff,Stanford,CB,70.0,160.0,3,0.8667,Dallas,TX,USA,32.7762719,-96.7968559,48113.0
72129,4873123.0,HighSchool,2021,678,Jamarius Dinkins,Walnut Ridge,Kentucky,SDE,78.0,255.0,3,0.8667,Columbus,OH,USA,39.9622601,-83.0007065,39049.0
72130,4602935.0,HighSchool,2021,679,DJ Justice,Bishop Alemany,UCLA,WR,73.0,180.0,3,0.8667,Mission Hills,CA,USA,34.687584,-120.43901754304564,6083.0
72133,4683423.0,HighSchool,2021,680,Riley Leonard,Fairhope,Duke,DUAL,76.0,203.0,3,0.8667,Fairhope,AL,USA,30.507956,-87.89742922432941,1003.0
72290,4683643.0,HighSchool,2021,681,Barryn Sorrell,Holy Cross,Texas,SDE,75.0,250.0,3,0.8667,New Orleans,LA,USA,29.9499323,-90.0701156,22071.0
72132,4710334.0,HighSchool,2021,682,Ese Dubre,McEachern,Stanford,ILB,74.0,220.0,3,0.8667,Powder Springs,GA,USA,33.8595492,-84.683824,13067.0
72134,unknown,HighSchool,2021,683,Alexander Honig,Germany,TCU,PRO,77.0,230.0,3,0.8667,unknown,unknown,GERM,unknown,unknown,unknown
72135,4431560.0,HighSchool,2021,684,Antwain Littleton,St. John's,Maryland,FB,72.0,265.0,3,0.8665,Washington,DC,USA,38.8949855,-77.0365708,11001.0
